     3.03           OBSERVATION DATA    M                   RINEX VERSION / TYPE
GnssLogger          Google 14           20231129 032243 UTC PGM / RUN BY / DATE
Google GnssLogger                                           MARKER NAME
Unknown                                                     MARKER NUMBER
Unknown             Unknown                                 OBSERVER / AGENCY
Unknown             GnssLogger          v3.0.6.4            REC # / TYPE / VERS
Unknown             Unknown                                 ANT # / TYPE
        0.0000        0.0000        0.0000                  ANTENNA: DELTA H/E/N
G    8 C1C L1C D1C S1C C5Q L5Q D5Q S5Q                      SYS / # / OBS TYPES
R    4 C1C L1C D1C S1C                                      SYS / # / OBS TYPES
E    8 C1C L1C D1C S1C C5Q L5Q D5Q S5Q                      SYS / # / OBS TYPES
  2023    11    29    03    22   43.0000000     GPS         TIME OF FIRST OBS
 6 R11  0 R12 -1 R13 -2 R21  4 R22 -3 R23  3                GLONASS SLOT / FRQ #
G L1C                                                       SYS / PHASE SHIFT
G L5Q  0.00000                                              SYS / PHASE SHIFT
R L1C                                                       SYS / PHASE SHIFT
E L1C  0.00000                                              SYS / PHASE SHIFT
E L5Q  0.00000                                              SYS / PHASE SHIFT
 C1C    0.000 C1P    0.000 C2C    0.000 C2P    0.000        GLONASS COD/PHS/BIS
                                                            END OF HEADER
> 2023 11 29 03 22 43.0000315  0 23                      
G06  21137098.39125   -544824.94525      3655.54925        31.41025  21136949.09525   -409610.60125      2730.25325        35.16425
G11  23186070.11825   -753389.46025      5105.32125        32.36825  23185887.54424   -566429.36024      3813.19224        24.98624
G12  23275203.81227   -655510.52727      4380.53427        42.71727                                                                
G13  24513220.45125    223668.52525     -1623.46325        31.60725                                                                
G15  24800830.84225    152005.02825     -1051.65525        29.75925                                                                
G17  22370615.74525    138336.83825      -959.40525        34.78125                                                                
G19  20438232.40625    -56074.70125       325.54925        33.17625                                                                
G22  22442747.60925      1276.58725       -38.42425        29.81025                                                                
G24  21042240.46027   -367555.19427      2402.98327        44.35427  21042071.67726   -280398.81026      1794.58026        36.05426
R22  19218498.01125   -347438.52925      2252.41125        34.76025
R13  22456517.97626   -768475.74726      5160.50226        38.19626
R12  19672153.25227   -475725.12927      3146.37727        42.63327
R11  20980241.28125     67823.98625      -515.60825        32.53025
R23  21873906.11024   -852441.24224      5685.79624        29.41424
R21  21046551.17626    214627.44126     -1496.25826        40.90826
E02  26201508.27323     10079.23723       -93.01723        20.96023                                                                
E07  27000795.43826    110203.05926      -781.87726        37.66726  27000630.25325     82886.30525      -583.69825        30.86725
E15  25490088.17925   -238534.68225      4489.66025        34.45325  25489923.59326   -178067.49226      3353.31726        38.18226
E18  20457684.44025   -688899.78025      4562.97725        30.41125  20457537.24225   -531010.46125      3407.84125        33.96125
E27  25397927.78027   -180638.68427      3402.29427        45.97727  25397760.49625   -134885.64625      2540.63925        32.55025
E30  23778525.36924   -240707.27624      1592.82424        28.77724  23778359.58425   -186764.25425      1189.15725        29.91825
E34  24173841.59824   -326870.73724      2170.27224        27.60724  24173663.82125   -247493.32625      1620.94925        31.31525
E36  26732126.23426     53652.28926      -410.60126        37.67626  26731964.04624     40403.11924      -306.22724        29.37424
> 2023 11 29 03 22 44.0000326  0 23                      
G06  21136735.04325   -548480.35325      3656.06625        32.05625  21136582.44825   -412340.49825      2729.61725        35.43025
G11  23185430.96025   -758494.87625      5105.53425        32.38125  23185243.59024   -570244.28824      3812.12824        23.50924
G12  23274695.66327   -659888.97327      4377.53327        41.97327                                                                
G13  24513861.70725    225293.15525     -1624.52425        30.13825                                                                
G15  24801360.27624    153056.46424     -1049.72324        26.80624                                                                
G17  22371128.99025    139297.10825      -960.20925        35.21225                                                                
G19  20438500.12125    -56400.83825       326.89825        32.94425                                                                
G22  22443084.87624      1316.01324       -39.55924        28.33724                                                                
G24  21042113.94827   -369956.50527      2400.61027        43.88527  21041944.56525   -282192.29425      1793.15825        35.21025
R22  19218408.07325   -349690.21725      2251.67525        34.18225
R13  22455877.61926   -773635.45426      5159.56526        37.99026
R12  19671898.42827   -478871.60827      3145.69027        42.84327
R11  20980670.28425     68339.17625      -516.23325        33.70625
R23  21873162.32525   -858127.35325      5685.41125        29.54225
R21  21047161.25326    216124.43426     -1497.40026        41.09026
E02  26201857.53123     10171.53023       -92.71023        20.12223                                                                
E07  27001274.80626    110984.94826      -781.93226        36.24426  27001109.02124     83469.92424      -583.70424        29.25524
E15  25489561.14426   -243024.34826      4489.17026        35.62726  25489399.25626   -181420.32826      3352.84026        38.27126
E18  20457153.80725   -693464.76925      4562.50625        30.06925  20456997.91525   -534419.25725      3407.17025        32.78625
E27  25397609.70127   -184040.33227      3401.76027        45.86227  25397443.01625   -137425.74525      2540.12425        31.69125
E30  23778552.35125   -242300.08625      1592.52425        29.83425  23778386.56624   -187953.14024      1189.28324        27.82824
E34  24173756.15724   -329040.53824      2169.09324        28.61624  24173580.47825   -249114.10625      1620.51825        30.61825
E36  26732533.95226     54063.38426      -411.28226        37.06226  26732371.76424     40707.42124      -307.21224        26.75824
> 2023 11 29 03 22 45.0000336  0 23                      
G06  21136347.71125   -552134.20325      3654.16225        34.50025  21136186.72226   -415069.35826      2728.75026        37.34526
G11  23184756.72725   -763599.75925      5105.35125        32.41725  23184569.35724   -574060.87124      3813.11724        23.75224
G12  23274164.73126   -664267.40426      4377.82026        41.15726                                                                
G13  24514478.38024    226918.10124     -1625.27824        27.68424                                                                
G15  24801863.62724    154109.84824     -1048.63924        24.72924                                                                
G17  22371608.05826    140259.00726      -962.56826        37.66126                                                                
G19  20438737.25725    -56725.95725       326.42825        33.75725                                                                
G22  22443392.76224      1353.50624       -41.23224        28.88624                                                                
G24  21041958.65527   -372356.48227      2399.49727        43.82827  21041786.27426   -283985.04726      1792.24526        37.09426
R22  19218280.06225   -351940.49325      2250.67725        33.37025
R13  22455201.58726   -778793.67226      5157.32326        38.14026
R12  19671606.43027   -482017.33527      3144.66227        44.20727
R11  20981070.50726     68854.83226      -516.28626        35.53326
R23  21872409.84624   -863813.95624      5686.86224        27.29324
R21  21047737.45527    217622.91027     -1499.10127        42.07827
E02  26202176.21122     10264.10822       -93.28622        17.18622                                                                
E07  27001721.79725    111767.90025      -782.59925        34.59325  27001557.21125     84054.47225      -584.57725        31.08025
E15  25489006.82826   -247512.43826      4488.10726        37.66126  25488844.34026   -184772.32626      3352.14226        39.56626
E18  20456585.10125   -698026.50325      4561.39625        29.78025  20456429.50925   -537825.07825      3405.95325        32.99225
E27  25397262.24127   -187440.69227      3401.18127        46.19427  25397095.25725   -139964.83925      2539.66225        31.96925
E30  23778547.25425   -243891.58725      1591.83725        30.41825  23778382.66825   -189141.95325      1188.71225        29.51725
E34  24173641.93625   -331208.86425      2167.96925        31.32825  24173466.55725   -250733.63425      1619.27925        31.92025
E36  26732913.78926     54475.99826      -412.45526        38.03126  26732750.70224     41011.22624      -309.19724        24.94224
> 2023 11 29 03 22 46.0000347  0 23                      
G06  21135988.56025   -555787.26825      3652.50225        34.63125  21135820.97626   -417798.27926      2728.90726        37.36126
G11  23184117.56925   -768704.40125      5105.51825        32.62325  23183928.10124   -577877.64624      3813.25024        23.87524
G12  23273660.48026   -668646.18226      4378.77526        41.49826                                                                
G13  24515122.63424    228543.88024     -1626.38824        27.17724                                                                
G15  24802372.67524    155158.04424     -1051.06224        23.78524                                                                
G17  22372116.20626    141220.36326      -961.12526        37.10226                                                                
G19  20439007.07025    -57050.06825       323.79225        33.84225                                                                
G22  22443731.52824      1392.65924       -41.37324        26.84124                                                                
G24  21041831.84327   -374755.67427      2398.88927        43.66127  21041659.46226   -285776.68926      1792.58126        37.99126
R22  19218176.93325   -354189.80025      2248.61425        34.39225
R13  22454565.42826   -783952.33326      5158.58926        38.30626
R12  19671348.30927   -485162.67527      3145.16827        43.90427
R11  20981488.71825     69370.87525      -516.59325        35.36825
R23  21871668.75924   -869500.20724      5686.81024        26.56924
R21  21048349.93127    219121.14327     -1498.04427        41.60427
E02  26202525.46923     10356.74423       -93.06923        19.49123                                                                
E07  27002200.56625    112551.31925      -783.38925        34.20825  27002036.57925     84639.53925      -584.31325        31.60325
E15  25488484.58926   -252001.03526      4488.95426        37.64226  25488320.00326   -188122.11526      3352.20026        39.04326
E18  20456048.17325   -702587.14025      4560.43025        29.69625  20455891.38125   -541230.34525      3405.83125        32.98425
E27  25396945.06127   -190841.51927      3401.34527        46.16327  25396777.17725   -142502.72225      2539.81225        32.40925
E30  23778574.23625   -245483.03325      1591.28125        30.82225  23778408.75024   -190330.08324      1188.81524        29.31924
E34  24173559.79325   -333376.98225      2167.31625        31.80525  24173383.51525   -252352.28725      1619.44625        30.86825
E36  26733319.10826     54888.44026      -412.56226        37.68226  26733159.31924     41312.65824      -307.68424        24.08624
> 2023 11 29 03 22 47.0000357  0 23                      
G06  21135594.03325   -559439.24325      3650.46225        34.39825  21135424.65026   -420526.30726      2728.93726        37.39726
G11  23183437.04125   -773809.13425      5105.56625        31.41725  23183256.26623   -581691.30923      3811.24723        23.33423
G12  23273124.15126   -673024.60626      4378.29726        40.39226                                                                
G13  24515735.11024    230170.09624     -1628.95824        28.43324                                                                
G15  24802870.63023    156206.86123     -1050.85723        22.41823                                                                
G17  22372599.47226    142181.82626      -961.62626        37.07326                                                                
G19  20439245.10525    -57372.87825       321.86725        33.91225                                                                
G22  22444043.61224      1433.29624       -40.06724        28.89524                                                                
G24  21041674.75227   -377154.04427      2397.02627        44.02227  21041502.37126   -287568.30626      1792.10526        38.24826
R22  19218049.82125   -356437.74425      2247.05125        33.83625
R13  22453904.08626   -789112.03126      5160.71426        38.00026
R12  19671059.00927   -488307.77427      3145.02227        43.71027
R11  20981889.24026     69886.84226      -515.01926        36.16926
R23  21870892.89624   -875186.76724      5685.56724        25.61424
R21  21048933.62627    220620.00127     -1498.80827        41.60827
E02  26202845.94723     10449.94923       -93.93523        22.18723                                                                
E07  27002648.15625    113334.57325      -784.17125        34.72825  27002485.06925     85224.32525      -584.45025        31.88725
E15  25487933.87126   -256489.22826      4487.92626        38.49326  25487765.08726   -191473.21626      3351.84426        39.50326
E18  20455480.96524   -707147.49024      4559.37824        29.05824  20455322.37525   -544636.00525      3405.60025        33.23425
E27  25396596.70227   -194242.38327      3401.23427        46.25027  25396429.11825   -145042.31225      2539.66125        32.76925
E30  23778570.03925   -247074.52425      1590.69425        30.32225  23778405.15325   -191518.86525      1188.95825        29.81425
E34  24173446.47125   -335543.89225      2166.72025        31.44825  24173270.49325   -253972.08725      1619.00325        31.16925
E36  26733705.54126     55300.92226      -412.79426        37.70026  26733538.25724     41610.51124      -307.50424        24.30924
> 2023 11 29 03 22 48.0000368  0 23                      
G06  21135227.68625   -563090.24425      3650.20425        34.10525  21135059.80326   -423253.82226      2727.31726        37.75426
G11  23182794.28525   -778913.12425      5104.00925        32.56425  23182616.50924   -585503.07524      3811.24724        24.99924
G12  23272621.99926   -677402.68926      4377.31026        39.04826                                                                
G13  24516375.46624    231796.29324     -1627.21124        28.97224                                                                
G15  24803399.76423    157258.43023     -1050.80323        20.43623                                                                
G17  22373115.41426    143143.99526      -962.06026        36.68526                                                                
G19  20439511.32125    -57695.33025       320.06625        32.48925                                                                
G22  22444372.18424      1476.66324       -42.63124        27.53024                                                                
G24  21041547.04027   -379551.97627      2397.42427        44.51927  21041375.25926   -289359.50026      1790.62426        38.14626
R22  19217961.68225   -358684.59825      2245.84625        33.03525
R13  22453273.02326   -794270.99226      5158.98726        37.57526
R12  19670801.48727   -491452.75927      3145.28127        43.57827
R11  20982329.63526     70403.20426      -515.31326        36.09826
R23  21870135.62024   -880870.86024      5682.80424        25.81824
R21  21049546.10226    222119.45726     -1498.88326        41.47426
E02  26203194.30623     10544.16723       -94.25623        22.72023                                                                
E07  27003128.42325    114118.82925      -784.66225        34.66625  27002963.83725     85809.77125      -584.95825        31.70225
E15  25487405.93626   -260977.04526      4487.28426        38.38126  25487240.15126   -194824.05026      3351.40726        38.89626
E18  20454943.73724   -711706.38624      4558.59824        29.31724  20454784.24825   -548040.37625      3405.02525        32.48425
E27  25396278.02327   -197643.08727      3400.81127        45.87827  25396111.93825   -147581.23325      2539.54825        34.15725
E30  23778597.02025   -248664.92325      1590.19825        30.70925  23778431.83424   -192707.19724      1188.16524        29.28824
E34  24173362.52925   -337710.20225      2166.12025        32.40125  24173187.75025   -255589.93225      1618.39025        30.90425
E36  26734108.76226     55714.02026      -413.60326        37.11826  26733947.47323     41908.50923      -308.87823        21.72523
> 2023 11 29 03 22 49.0000378  0 23                      
G06  21134837.35725   -566740.16125      3648.68025        34.70425  21134664.37625   -425976.92725      2722.05525        33.82225
G11  23182129.34625   -784015.92925      5103.18225        31.09525  23181943.17525   -589313.70025      3810.56825        30.49625
G12  23272087.76926   -681779.60026      4375.68326        37.29626                                                                
G13  24516981.34724    233421.96624     -1625.34524        27.69124                                                                
G15  24803900.71724    158309.95224     -1051.06124        28.72824                                                                
G17  22373595.98226    144106.48326      -962.82326        35.88926                                                                
G19  20439749.05625    -58016.94325       321.58525        33.05225                                                                
G22  22444674.07524      1524.17024       -44.38324        27.76024                                                                
G24  21041388.75027   -381948.63927      2396.96127        43.82027  21041218.76726   -291149.80226      1790.18826        38.66326
R22  19217838.46725   -360929.65525      2243.95825        35.25225
R13  22452604.78526   -799429.82526      5159.56026        38.02626
R12  19670507.99127   -494596.38527      3144.23827        43.75127
R11  20982717.26726     70920.98226      -516.85226        36.29326
R23  21869409.52326   -886553.66026      5682.80426        36.78026
R21  21050124.10226    223620.87226     -1502.52326        40.98626
E02  26203514.48423     10639.52323       -94.35123        23.02423                                                                
E07  27003576.91325    114903.52125      -785.00925        32.00625  27003411.72724     86393.31724      -585.70924        28.82424
E15  25486853.41926   -265463.70126      4485.84526        38.60426  25486684.93526   -198174.61026      3350.40026        40.25026
E18  20454377.72925   -716262.97625      4557.35225        31.18025  20454215.54125   -551444.84425      3404.40225        35.40525
E27  25395936.85927   -201043.05227      3400.02027        45.57227  25395764.17825   -150120.26925      2539.11325        35.49925
E30  23778592.22325   -250254.51625      1589.62525        32.87825  23778429.43625   -193895.28525      1187.88125        31.74525
E34  24173251.00725   -339875.45425      2165.25525        32.05125  24173075.02825   -257207.60025      1617.69325        32.41725
E36  26734487.99926     56128.59726      -415.37526        36.64926                                                                
> 2023 11 29 03 22 50.0000389  0 23                      
G06  21134473.70826   -570388.29126      3647.52426        36.26226  21134299.52925   -428696.27225      2722.71725        31.72725
G11  23181486.59125   -789117.89825      5101.55325        29.78725  23181303.41825   -593123.38725      3810.01325        32.12825
G12  23271583.81826   -686155.95026      4376.54026        36.00226                                                                
G13  24517607.91325    235047.80425     -1625.48625        31.01625                                                                
G15  24804434.04824    159362.33824     -1051.78724        24.61324                                                                
G17  22374113.12425    145070.42525      -964.50025        34.99325                                                                
G19  20440012.87425    -58338.45325       321.73825        30.87625                                                                
G22  22445007.74424      1569.57924       -44.17624        27.44024                                                                
G24  21041265.23527   -384344.25827      2395.72127        42.36927  21041091.35626   -292937.95126      1787.89926        35.75826
R22  19217744.63225   -363173.14825      2242.52125        34.81125
R13  22451967.42626   -804587.17026      5156.72326        37.17726
R12  19670246.87127   -497738.06427      3140.80327        43.54627
R11  20983154.06526     71440.91026      -521.21826        37.97026
R23  21868669.63527   -892235.68227      5682.04527        41.99727
R21  21050728.78426    225124.16326     -1504.55526        39.04526
E02  26203862.24423     10735.55123       -94.99223        20.60323                                                                
E07  27004056.88025    115689.05325      -785.44725        34.92425  27003890.49626     86979.91726      -585.80826        38.91926
E15  25486332.07926   -269949.32326      4485.15426        38.91226  25486160.89826   -201523.85326      3349.40126        40.47926
E18  20453843.19925   -720819.85525      4556.36125        32.07725  20453678.01325   -554847.42925      3403.24725        34.61625
E27  25395613.68227   -204441.44127      3399.14927        42.70227  25395447.59725   -152657.86525      2537.32825        33.13625
E30  23778620.70325   -251843.59225      1589.01625        32.63625  23778456.71725   -195081.65225      1187.05425        33.54725
E34  24173167.36425   -342037.34325      2164.26625        29.89025  24172993.48525   -258823.35025      1615.65225        32.92925
E36  26734899.31426     56544.48926      -416.27826        36.94026                                                                
> 2023 11 29 03 22 51.0000399  0 23                      
G06  21134080.98026   -574035.61526      3649.27026        35.88426  21133905.00224   -431414.75524      2723.77724        28.82524
G11  23180810.85925   -794218.56825      5098.56525        29.97825  23180631.58325   -596933.68325      3810.22225        32.29825
G12  23271053.78526   -690532.03026      4376.60226        36.97226                                                                
G13  24518210.49625    236674.00425     -1625.92525        31.58725                                                                
G15  24804929.90423    160415.09123     -1056.53823        22.72123                                                                
G17  22374593.39125    146034.55525      -964.87325        34.94025                                                                
G19  20440251.80825    -58658.84325       321.24525        30.56925                                                                
G22  22445301.54124      1613.08424       -44.95724        25.52124                                                                
G24  21041105.74627   -386738.46227      2393.38627        42.84927  21040935.76326   -294730.55426      1788.85226        36.47326
R22  19217618.71925   -365415.71025      2241.67325        34.33225
R13  22451300.08825   -809742.90325      5153.22025        34.99125
R12  19669959.97027   -500879.40527      3140.21527        43.78027
R11  20983538.09926     71961.46126      -521.32426        37.70926
R23  21867897.96927   -897917.36827      5681.15327        41.71427
R21  21051304.38526    226627.02426     -1503.15326        38.75226
E02  26204177.92523     10833.02123       -95.34823        19.28423  26203997.15024      7884.11224       -71.60524        23.98124
E07  27004497.27626    116474.31026      -785.64926        37.24226  27004339.28526     87565.92126      -585.75026        40.56426
E15  25485772.06726   -274434.79726      4484.76726        39.33226  25485606.28226   -204873.93826      3350.21026        40.41226
E18  20453279.28925   -725375.56825      4555.39225        32.76925  20453110.80625   -558250.24325      3402.82025        34.26025
E27  25395265.62327   -207840.75627      3399.70227        44.39527  25395099.83825   -155196.52325      2539.06025        33.95425
E30  23778616.80625   -253432.66425      1588.40925        31.81825  23778453.71925   -196268.43525      1186.51725        32.54425
E34  24173052.54424   -344195.02524      2163.31824        28.57124  24172880.46325   -260438.89525      1616.34525        33.41725
E36  26735277.65226     56961.22326      -416.58026        37.01326                                                                
> 2023 11 29 03 22 52.0000410  0 23                      
G06  21133711.33625   -577684.64825      3649.87325        34.96825  21133540.75424   -434134.45824      2725.29024        26.79024
G11  23180172.00125   -799318.87325      5098.00725        31.15125  23179990.02725   -600744.12925      3810.82825        32.69525
G12  23270553.43125   -694909.27225      4376.59725        35.06325                                                                
G13  24518849.35425    238300.74025     -1627.53825        32.54225                                                                
G15  24805460.83723    161470.26223     -1056.67623        20.91623                                                                
G17  22375104.83725    146998.28925      -963.92225        34.14525                                                                
G19  20440517.42425    -58981.60625       320.87025        29.73625                                                                
G22  22445645.70324      1661.31824       -46.23224        23.51124                                                                
G24  21040979.83327   -389132.03227      2392.84927        43.58427  21040809.85026   -296524.35626      1788.36526        35.64226
R22  19217523.08625   -367657.48725      2241.61725        34.48225
R13  22450659.43225   -814899.57425      5155.67425        34.23325
R12  19669696.75227   -504021.73927      3142.92627        43.52027
R11  20983951.51326     72480.73426      -517.92026        36.94826
R23  21867168.27427   -903599.48927      5682.95327        41.56427
R21  21051897.67526    228128.94526     -1500.57326        36.02726
E02  26204527.18323     10931.53723       -95.68523        18.16623  26204344.01023      7954.42623       -71.97123        23.30323
E07  27004981.44026    117259.39726      -784.97326        37.64326  27004818.05326     88151.97326      -585.69026        40.51426
E15  25485252.82726   -278920.76526      4486.04026        39.05326  25485082.24526   -208223.90926      3350.29926        40.12726
E18  20452745.65925   -729931.62025      4555.16525        34.44625  20452573.27825   -561655.77825      3402.52125        32.55125
E27  25394950.24227   -211239.65827      3399.88927        45.23727  25394782.65825   -157734.94825      2538.31125        32.72025
E30  23778642.88825   -255021.66725      1588.22525        31.76025  23778480.40125   -197455.69725      1187.13725        32.51025
E34  24172967.40325   -346350.80325      2162.96625        30.55125  24172798.32025   -262055.09425      1616.42425        33.24025
E36  26735683.27226     57376.92226      -415.49726        36.10326                                                                
> 2023 11 29 03 22 53.0000420  0 23                      
G06  21133314.71126   -581333.19926      3649.26726        36.07526  21133145.32824   -436858.20524      2724.45024        27.19424
G11  23179504.36325   -804419.59325      5099.36925        30.61825  23179318.19225   -604554.40625      3810.09125        32.09625
G12  23270021.29925   -699285.07525      4374.78025        34.35325                                                                
G13  24519456.43425    239927.01025     -1627.01025        33.20925                                                                
G15  24805968.98523    162528.91923     -1056.83023        23.26023                                                                
G17  22375586.30425    147961.68725      -963.14225        34.85225                                                                
G19  20440761.15625    -59301.43625       318.88325        29.62525                                                                
G22  22445946.69423      1710.06623       -45.24023        18.81023                                                                
G24  21040819.14427   -391525.29227      2392.65727        43.15527  21040655.15826   -298313.37826      1788.02026        37.63026
R22  19217408.26525   -369899.39425      2242.03825        35.09125
R13  22449994.19226   -820057.12826      5158.36326        37.83826
R12  19669415.54727   -507163.23927      3142.14127        43.28927
R11  20984347.23925     73001.67725      -521.75725        35.46725
R23  21866408.30127   -909280.74927      5681.10227        41.84427
R21  21052496.06026    229632.71226     -1503.94926        38.13626
E02  26204847.06222     11031.76422       -96.89422        17.09022  26204661.49023      8026.20123       -72.19623        22.44523
E07  27005429.03126    118044.34526      -785.37926        37.78826  27005266.54326     88738.91126      -586.33826        40.05626
E15  25484690.41626   -283406.22226      4484.87426        38.34626  25484528.82826   -211573.02626      3349.98526        40.31226
E18  20452177.85225   -734486.86925      4555.05325        34.57025  20452005.77125   -565060.88625      3402.10925        33.48625
E27  25394601.28327   -214638.84127      3399.40927        44.89627  25394435.49825   -160271.06625      2537.68525        30.82125
E30  23778641.38925   -256610.06425      1588.18225        32.13525  23778477.40325   -198641.99425      1186.81025        32.30125
E34  24172857.37925   -348503.43425      2162.52325        30.48025  24172686.19825   -263670.83125      1614.98725        31.61725
E36  26736066.10726     57793.07026      -416.30626        38.47926                                                                
> 2023 11 29 03 22 54.0000431  0 22                      
G06  21132945.06725   -584981.55525      3650.42725        35.10725  21132781.08024   -439585.19924      2723.51624        26.73624
G11  23178861.00824   -809520.54624      5100.52324        28.86024  23178677.53525   -608363.33825      3809.46325        31.81725
G12  23269514.05125   -703661.16325      4376.15525        33.77025                                                                
G13  24520093.79225    241553.77225     -1626.73225        33.63825                                                                
G15  24806508.01224    163588.47424     -1057.25024        26.68324                                                                
G17  22376098.05025    148925.13025      -963.03925        34.30925                                                                
G19  20441030.06925    -59619.27925       316.31125        31.18125                                                                
G24  21040694.13127   -393918.04727      2392.44727        42.95727  21040528.34526   -300100.75726      1787.35026        37.48026
R22  19217321.92525   -372140.62225      2240.43525        35.32125
R13  22449348.43926   -825215.39226      5158.00126        36.23226
R12  19669157.42627   -510303.04127      3139.30327        43.09527
R11  20984775.64226     73523.82926      -523.16326        35.61926
R23  21865673.80927   -914960.97727      5679.32227        41.95627
R21  21053114.53226    231137.21226     -1504.72226        38.95226
E02  26205194.52123     11133.13023       -96.47523        20.50623  26205009.25023      8099.05323       -72.77223        21.23123
E07  27005911.09726    118830.13626      -785.94726        38.10826  27005745.61126     89325.84626      -586.07426        39.96326
E15  25484176.87126   -287890.91326      4484.04126        38.50126  25484004.79126   -214921.70026      3349.32626        40.23426
E18  20451642.42325   -739041.96525      4554.65825        33.58025  20451468.54325   -568457.86225      3401.38125        33.69325
E27  25394286.80127   -218037.61227      3399.15827        45.18727  25394117.41825   -162808.58525      2538.63425        31.46825
E30  23778669.27025   -258198.75925      1588.00625        32.42625  23778504.38425   -199827.77325      1186.27825        31.73725
E34  24172774.03725   -350656.51325      2161.90525        30.00925  24172603.75525   -265285.35225      1614.59425        31.33225
E36  26736475.62326     58210.29126      -417.47926        38.53526                                                                
> 2023 11 29 03 22 55.0000441  0 22                      
G06  21132558.63426   -588628.28026      3648.43426        35.78526  21132387.45325   -442313.46525      2722.90525        29.64725
G11  23178198.46725   -814624.25525      5102.07525        29.89525  23178005.70125   -612172.70825      3809.45925        32.26825
G12  23268983.71825   -708037.69625      4377.27425        32.94125                                                                
G13  24520700.57225    243180.33225     -1626.61025        33.90725                                                                
G15  24807017.05924    164644.32724     -1058.97324        27.00224                                                                
G17  22376581.31525    149889.86525      -964.50125        33.60825                                                                
G19  20441268.70425    -59936.39725       316.54325        31.11125                                                                
G24  21040538.53827   -396309.21827      2390.89127        43.36027  21040372.75326   -301886.92626      1785.91226        37.42726
R22  19217201.40825   -374380.38625      2239.85525        34.88025
R13  22448689.19626   -830371.01126      5153.94126        36.13326
R12  19668862.73027   -513442.15227      3138.74927        43.90927
R11  20985186.35825     74047.12425      -523.84625        34.55125
R23  21864919.83127   -920639.88627      5677.37727        41.75727
R21  21053695.53026    232642.87526     -1506.38726        37.61426
E02  26205512.90123     11235.16023       -96.38623        20.24123  26205326.43024      8172.29024       -73.18924        24.21824
E07  27006359.58626    119616.94726      -786.85426        37.88126  27006194.70026     89912.86126      -586.99726        40.54626
E15  25483618.95826   -292374.81226      4483.83326        39.41526  25483450.77426   -218270.40626      3348.66026        40.67026
E18  20451076.41425   -743595.86525      4554.01125        33.75125  20450901.33625   -571845.37725      3400.63725        32.69725
E27  25393938.14227   -221435.35627      3398.57827        45.05527  25393769.05925   -165346.27625      2537.63225        32.25825
E30  23778668.37025   -259786.68125      1587.90825        32.80225  23778502.58525   -201013.90925      1185.97625        31.56425
E34  24172661.01525   -352818.45825      2161.31525        29.62325  24172491.33225   -266899.92025      1614.54425        32.05325
E36  26736856.95926     58628.46126      -418.15426        37.78026                                                                
> 2023 11 29 03 22 56.0000452  0 23                      
G06  21132191.38825   -592273.11025      3643.76225        35.13725  21132025.00425   -445038.20225      2722.13225        29.54525
G11  23177557.21125   -819728.00425      5101.56425        30.23925  23177365.04425   -615981.22225      3808.88025        32.84325
G12  23268483.06425   -712413.77325      4376.94925        32.92225                                                                
G13  24521341.52925    244807.06025     -1627.01525        33.90025                                                                
G15  24807556.68624    165707.66424     -1057.35324        27.25424                                                                
G17  22377091.26225    150855.37625      -965.97025        32.88725                                                                
G19  20441541.21525    -60253.27925       316.85225        31.06825                                                                
G22  22446943.20523      1840.60723       -43.97923        21.41823                                                                
G24  21040413.52527   -398699.05427      2389.44727        43.34327  21040247.44026   -303672.58526      1786.10726        37.42326
R22  19217114.46825   -376618.56025      2238.50425        35.01625
R13  22448044.94226   -835525.89726      5153.14626        35.87926
R12  19668606.70727   -516580.79927      3138.65427        43.95127
R11  20985609.96525     74570.72325      -523.59525        34.71725
R23  21864182.94127   -926318.15127      5677.48527        41.66827
R21  21054291.51726    234150.26126     -1508.61226        37.41326
E07  27006839.55426    120403.64926      -786.78226        38.31126  27006674.06926     90500.21326      -587.19926        40.43326
E15  25483096.41926   -296858.36826      4483.48126        39.74926  25482926.73726   -221618.66726      3348.63226        40.73326
E18  20450540.08625   -748148.93425      4553.07325        34.76625  20450364.40725   -575245.19625      3400.35525        32.11925
E27  25393620.66227   -224833.17127      3398.52127        44.75427  25393452.17925   -167883.74825      2537.84025        32.42225
E30  23778694.45225   -261374.15425      1587.54725        32.71525  23778530.16625   -202199.72725      1186.11825        31.30625
E34  24172575.87424   -354979.30224      2160.63224        28.44424  24172410.08925   -268513.25625      1613.12425        32.49025
E36  26737261.97926     59046.86526      -418.56626        37.25426                                                                
E02                                                                  26205673.88924      8245.02324       -73.22424        25.20324
> 2023 11 29 03 22 57.0000462  0 22                      
G06  21131795.96225   -595916.57525      3640.94325        34.14025  21131633.17524   -447760.52524      2722.66424        28.86324
G11  23176888.07425   -824826.19925      5101.86025        29.51425  23176694.40825   -619789.63025      3808.64325        33.03125
G12  23267953.63125   -716793.69225      4376.09125        33.01925                                                                
G13  24521949.50825    246433.71925     -1626.85025        33.97325                                                                
G15  24808067.23224    166762.47024     -1055.26724        27.18224                                                                
G17  22377575.72725    151820.56825      -966.00425        33.39225                                                                
G19  20441781.34925    -60570.59425       317.71325        31.49825                                                                
G24  21040259.43127   -401089.36827      2391.08227        43.29727  21040092.14726   -305457.33926      1785.20026        38.19026
R22  19216989.15525   -378856.10525      2237.49025        35.26525
R13  22447386.29826   -840682.01426      5155.11826        36.24026
R12  19668318.60627   -519719.35227      3138.20827        43.80527
R11  20986011.68625     75093.72425      -522.93525        35.28625
R23  21863416.67227   -931996.57927      5677.97027        41.99627
R21  21054867.41926    235656.03326     -1506.17126        37.93226
E02  26206176.64123     11443.50523       -97.70323        19.05823  26205991.96924      8318.07224       -73.35824        25.49524
E07  27007286.84426    121190.49726      -786.54026        38.00226  27007122.55826     91087.61926      -587.02026        40.12626
E15  25482542.10326   -301341.69026      4483.54326        39.73426  25482372.72026   -224966.84426      3348.52526        40.97726
E18  20449975.57725   -752701.22525      4552.07725        34.78225  20449797.20025   -578644.90025      3399.95125        32.59625
E27  25393274.40227   -228230.88027      3398.38427        44.96227  25393105.31925   -170421.35925      2537.93225        32.28525
E30  23778691.45425   -262961.22025      1587.06925        33.24125  23778526.86825   -203385.28925      1185.70125        31.05925
E34  24172464.65125   -357139.18325      2159.87725        29.98125  24172297.96625   -270126.87825      1613.54825        32.61725
E36  26737640.61726     59465.65026      -418.42626        37.56626                                                                
> 2023 11 29 03 22 58.0000473  0 23                      
G06  21131430.51525   -599559.22925      3640.36625        31.52225  21131270.42624   -450482.05724      2721.40924        28.66524
G11  23176246.21925   -829926.41425      5100.39425        30.22225  23176053.45225   -623597.55925      3808.42325        33.27625
G12  23267449.38025   -721169.51125      4376.08925        32.74025                                                                
G13  24522587.16625    248060.18525     -1626.01525        32.02625                                                                
G15  24808593.96824    167816.94024     -1054.57524        28.84424                                                                
G17  22378091.96925    152786.44825      -966.31425        32.88825                                                                
G19  20442048.76425    -60888.11925       318.14525        30.23325                                                                
G22  22447601.24923      1923.69823       -45.16023        22.01423                                                                
G24  21040137.41627   -403478.52627      2388.65227        44.42127  21039965.33526   -307241.39726      1784.83226        36.86126
R22  19216895.62025   -381092.32525      2236.29925        35.35025
R13  22446740.54526   -845838.78226      5158.21326        35.66226
R12  19668063.18327   -522857.00127      3137.69827        43.83127
R11  20986436.79226     75617.66126      -523.26926        35.80526
R23  21862691.17427   -937674.44027      5678.18627        42.39227
R21  21055478.69526    237162.11826     -1505.15426        38.25626
E02  26206520.20423     11549.54623       -97.71123        21.45723  26206339.42924      8391.17024       -72.96424        25.53724
E07  27007769.21026    121977.72826      -787.67026        37.32626  27007601.62626     91675.81626      -587.62626        39.78226
E15  25482018.96526   -305824.68726      4482.59426        38.91826  25481848.98326   -228314.28826      3348.28026        40.64226
E18  20449438.04925   -757253.43625      4551.28225        34.37925  20449260.87125   -582043.77925      3399.13825        31.91025
E27  25392959.02027   -231628.62427      3398.01727        44.98027  25392788.43825   -172958.20525      2537.46125        32.81925
E30  23778719.33525   -264548.63125      1586.79025        33.80925  23778554.44925   -204570.13425      1185.44825        30.84025
E34  24172382.20825   -359299.06425      2159.15925        30.60925  24172217.02225   -271739.09325      1612.82725        33.24725
E36  26738038.74126     59884.57026      -419.33126        35.95126                                                                
> 2023 11 29 03 22 59.0000483  0 23                      
G06  21131046.48125   -603203.14025      3640.64825        31.18525  21130876.19925   -453202.94325      2720.81225        31.34425
G11  23175570.78624   -835024.40624      5096.30324        28.81224  23175382.81625   -627405.68525      3808.09925        33.43725
G12  23266904.95725   -725544.89525      4375.51525        29.89125                                                                
G13  24523196.04524    249683.59224     -1619.33724        27.24924                                                                
G15  24809041.55826    168872.31426     -1054.85526        37.39826                                                                
G17  22378574.93525    153752.63225      -966.54125        30.37725                                                                
G19  20442279.00524    -61206.18424       316.56824        27.48524                                                                
G22  22447917.23023      1963.36623       -45.04923        23.05623                                                                
G24  21039981.22427   -405866.59627      2388.36227        45.93927  21039811.24226   -309025.00626      1783.84326        36.94026
R22  19216768.50825   -383327.51325      2235.21825        35.44525
R13  22446081.00126   -850995.08226      5157.80026        36.10226
R12  19667779.87927   -525993.81127      3136.48327        42.37627
R11  20986830.42025     76144.73325      -525.06425        32.85725
R23  21861927.00326   -943351.94926      5677.91026        40.33726
R21  21056079.48026    238670.47026     -1508.88526        41.35826
E02  26206838.58324     11657.03924       -98.46324        28.95324  26206657.50924      8464.34024       -73.38224        25.45224
E07  27008218.89926    122765.72026      -788.06726        40.27826  27008050.11626     92263.66126      -588.10626        38.80926
E15  25481453.25725   -310307.07725      4481.97025        35.45825  25481296.16626   -231661.79426      3347.37826        39.86226
E18  20448870.24225   -761804.34625      4550.55925        35.20225  20448693.96425   -585443.69825      3398.64325        31.41725
E27  25392610.06227   -235025.45327      3397.55327        45.60827  25392440.97925   -175495.27925      2536.93825        31.96325
E30  23778717.23725   -266134.93725      1586.30625        35.38525  23778551.75125   -205755.14525      1184.65425        30.33425
E34  24172267.98725   -361457.60125      2158.38425        32.67925  24172106.39925   -273350.59525      1612.05625        34.38425
E36  26738410.48425     60305.02725      -420.73225        35.14925                                                                
> 2023 11 29 03 23 00.0000494  0 23                      
G06  21130684.33225   -606847.69725      3641.12425        30.59525  21130510.45224   -455922.17724      2720.25224        27.17124
G11  23174931.62924   -840121.94624      5096.25024        29.14524  23174742.46025   -631212.68725      3807.70225        33.21425
G12  23266406.40225   -729919.42225      4374.78425        32.72925                                                                
G13  24523823.81024    251306.23324     -1627.08224        28.08524                                                                
G15  24809589.87825    169929.02125     -1057.73325        35.14125                                                                
G17  22379087.58025    154719.05125      -966.59825        29.73125                                                                
G19  20442551.21625    -61520.76625       313.25125        31.88625                                                                
G22  22448248.80124      2008.82224       -45.43124        27.52024                                                                
G24  21039857.41027   -408253.78527      2388.33127        45.90527  21039685.32926   -310808.18926      1784.01626        38.06826
R22  19216680.06925   -385561.11125      2233.84725        35.36725
R13  22445451.43726   -856150.48226      5154.83426        37.19126
R12  19667518.76027   -529129.80127      3135.53827        43.67827
R11  20987254.92625     76674.51825      -525.79725        34.89325
R23  21861204.80326   -949027.62426      5674.49926        41.06626
R21  21056690.15726    240179.92326     -1509.45426        38.43326
E02  26207186.04324     11766.31124       -99.01824        26.52824  26207005.56823      8538.64223       -73.73223        22.07823
E07  27008690.47326    123553.96326      -788.08426        39.54126  27008530.38326     92852.13326      -588.32126        39.03126
E15  25480935.81525   -314787.94125      4480.05425        33.72425  25480769.73026   -235008.39826      3347.05826        37.49726
E18  20448333.61325   -766353.46925      4549.80125        31.75125  20448157.93525   -588841.84225      3398.65925        33.49325
E27  25392293.48127   -238422.18727      3397.73727        45.87827  25392123.79825   -178032.15025      2537.55725        32.67925
E30  23778745.41725   -267720.87425      1585.74425        33.79225  23778579.03224   -206939.75124      1184.37324        28.79024
E34  24172197.83625   -363615.14625      2157.37225        33.74125  24172025.15525   -274962.18825      1612.05025        33.81525
E36  26738838.28726     60725.54326      -420.69126        36.61926  26738672.20224     45680.12924      -312.32624        24.71024
> 2023 11 29 03 23 01.0000504  0 23                      
G06  21130268.22026   -610493.59626      3640.85026        38.03526  21130110.52925   -458641.59625      2718.76925        32.00825
G11  23174250.80024   -845218.92424      5095.87924        29.34924  23174072.42325   -635021.97325      3805.39025        29.62225
G12  23265877.86826   -734293.62226      4374.42226        38.75026                                                                
G13  24524438.38525    252933.41325     -1626.41925        29.53825                                                                
G15  24810090.23225    170986.56925     -1060.43725        32.34725                                                                
G17  22379569.34725    155684.72825      -965.67425        30.88725                                                                
G19  20442794.04825    -61834.03025       312.32125        35.45625                                                                
G22  22448552.19125      2054.70325       -45.83625        31.06725                                                                
G24  21039697.92027   -410640.29227      2387.03027        44.50227  21039531.23626   -312590.51526      1782.64426        38.62626
R22  19216570.64525   -387793.92425      2231.85625        33.94025
R13  22444792.49326   -861304.97026      5154.35026        36.66626
R12  19667230.06027   -532265.02727      3134.77827        43.23627
R11  20987652.45126     77201.40426      -527.33826        39.26126
R23  21860425.94226   -954701.70126      5670.99026        37.06426
R21  21057262.16126    241689.12926     -1509.22726        39.51526
E02  26207509.81824     11878.82324       -99.71724        25.54324  26207323.64723      8613.75123       -73.75323        21.45423
E07  27009143.75926    124342.28026      -788.07226        37.36126  27008980.37226     93440.41226      -588.30126        40.57926
E15  25480383.89725   -319272.87825      4478.61525        31.24125  25480218.11225   -238355.20225      3342.13925        33.97625
E18  20447750.21725   -770902.78825      4549.03725        31.60025  20447591.32725   -592240.54725      3397.82025        33.95725
E27  25391940.32527   -241818.91627      3397.26027        46.09727  25391777.83825   -180568.78825      2536.66225        33.93125
E30  23778743.01925   -269305.95425      1585.41625        30.19825  23778576.63424   -208124.07124      1184.32324        28.70424
E34  24172099.20425   -365772.32625      2156.66425        34.16325  24171913.63225   -276573.17925      1611.04525        35.06625
E36  26739205.53326     61146.38626      -421.19826        39.34526  26739045.74424     45994.72624      -314.29924        27.14424
> 2023 11 29 03 23 02.0000515  0 22                      
G06  21129906.37026   -614134.59126      3641.10126        38.37426  21129748.97925   -461360.11025      2719.28025        31.98225
G11  23173611.64224   -850316.54624      5097.12824        28.59024  23173432.06724   -638833.48124      3805.97124        26.33024
G13  24525077.24225    254561.03325     -1627.61025        30.21425                                                                
G15  24810615.16925    172043.63025     -1058.24325        35.02225                                                                
G17  22380075.69625    156651.48225      -966.60725        35.20425                                                                
G19  20443064.76126    -62147.37726       312.38226        35.78326                                                                
G22  22448881.66325      2100.78125       -45.21925        31.00725                                                                
G24  21039576.20427   -413026.31927      2386.47027        45.37027  21039406.52226   -314372.78426      1782.23126        39.15326
R22  19216487.90225   -390025.34825      2231.25825        34.40125
R13  22444141.34426   -866460.36526      5156.71326        35.59826
R12  19666971.63927   -535400.38827      3135.12727        43.55127
R11  20988070.36126     77728.36426      -526.62526        38.17726
R23  21859693.24925   -960377.19925      5676.03625        35.26025
R21  21057876.43527    243199.63227     -1510.92727        41.99327
E02  26207879.16324     11978.84224      -100.35524        26.68824  26207672.30623      8688.08123       -72.85523        20.87723
E07  27009615.03326    125131.00526      -788.40126        37.79326  27009459.44026     94028.74926      -588.49226        40.40526
E15  25479863.15824   -323763.80424      4477.26824        26.75324  25479695.87425   -241702.21725      3346.20625        32.09925
E18  20447222.58224   -775451.54924      4548.32124        29.04524  20447055.29825   -595638.12125      3397.37225        35.23425
E27  25391627.94227   -245215.11327      3397.09227        45.10427  25391461.55725   -183104.72825      2536.75425        33.63825
E30  23778772.39825   -270891.67525      1585.07925        30.28625  23778604.51525   -209308.25125      1183.73125        30.44725
E34  24172007.46725   -367928.59825      2155.92925        35.09025  24171832.68826   -278184.24826      1611.14226        36.20126
E36  26739620.74626     61568.27826      -421.39326        39.02926  26739454.06125     46308.89725      -314.02025        31.61525
> 2023 11 29 03 23 03.0000525  0 23                      
G06  21129516.34026   -617774.16626      3638.63326        38.31326  21129355.05225   -464078.34925      2718.62825        31.12725
G11  23172941.30724   -855413.81224      5096.55124        28.65724  23172761.43124   -642647.11124      3806.93824        26.05424
G12  23264888.55326   -743040.35326      4372.40826        37.46326                                                                
G13  24525688.21925    256188.42225     -1626.87625        30.88425                                                                
G15  24811113.72326    173100.59226     -1056.33226        35.60826                                                                
G17  22380557.76225    157618.00625      -966.11125        34.43225                                                                
G19  20443304.89526    -62460.75026       312.50726        36.53026                                                                
G22  22449193.74725      2146.34025       -44.87225        31.70925                                                                
G24  21039423.61027   -415411.72027      2386.01627        45.10327  21039251.82926   -316154.04426      1781.95326        38.70526
R22  19216372.78225   -392256.22625      2230.16125        33.52125
R13  22443482.10126   -871616.32626      5157.35226        35.99326
R12  19666680.54027   -538535.44027      3136.25727        43.21327
R11  20988468.18626     78255.51826      -526.44726        38.67226
R23  21858933.27525   -966054.46625      5678.25925        35.01325
R21  21058452.03727    244710.69427     -1511.31427        42.59627
E02  26208191.84624     12078.42424      -100.43224        26.38724  26207990.08623      8762.45223       -73.96323        21.03123
E07  27010069.21826    125919.36626      -788.43026        37.37226  27009909.12926     94617.41326      -588.37626        40.71226
E15  25479309.74124   -328243.06824      4476.91124        27.61024  25479142.15725   -245043.06025      3346.75525        31.59725
E18  20446639.48624   -779999.94524      4547.78524        27.50624  20446489.29025   -599034.92625      3397.30725        35.23525
E27  25391279.28327   -248611.90727      3397.50727        45.19127  25391114.39725   -185641.16625      2536.67025        33.57625
E30  23778767.30225   -272477.23925      1585.13825        32.41325  23778602.41625   -210492.60425      1184.38225        30.33425
E34  24171897.14425   -370084.82525      2155.55025        35.49825  24171721.76526   -279794.51126      1610.63826        36.87426
E36  26739999.98326     61990.11126      -421.93026        38.91726  26739836.59625     46623.86325      -314.33925        33.05725
> 2023 11 29 03 23 04.0000536  0 23                      
G06  21129149.09426   -621412.28226      3636.28626        36.96926  21128992.60325   -466796.61225      2718.63825        31.05525
G11  23172301.84924   -860511.34224      5097.55424        29.15124  23172120.47524   -646460.42224      3806.76324        25.08624
G12  23264334.23726   -747413.58026      4372.09026        37.04726                                                                
G13  24526335.47125    257815.61125     -1627.11325        31.82025                                                                
G15  24811642.55726    174151.96326     -1055.66026        35.99026                                                                
G17  22381068.00925    158584.99125      -966.89025        34.31025                                                                
G19  20443575.90726    -62773.86026       313.17426        36.05226                                                                
G22  22449528.91525      2194.29425       -46.40325        30.71725                                                                
G24  21039297.39727   -417796.33227      2385.41727        45.30927  21039127.41526   -317935.00326      1781.71726        39.09526
R22  19216272.95125   -394485.77925      2228.63325        33.30325
R13  22442840.84526   -876773.09926      5155.45726        35.51226
R12  19666430.21427   -541670.02327      3134.96427        43.24327
R11  20988898.38826     78783.41826      -528.60526        38.86926
R23  21858207.17825   -971730.10825      5677.38125        34.82525
R21  21059075.30627    246222.06827     -1511.35527        42.78827
E02  26208544.70224     12178.43424      -100.28624        25.44624                                                                
E07  27010549.48626    126708.73626      -789.26926        37.87926  27010388.49726     95206.27226      -588.45126        40.79826
E15  25478790.80024   -332722.67324      4477.41024        27.25024  25478618.12025   -248381.70025      3346.55125        30.96625
E18  20446097.16124   -784548.20924      4547.40224        27.79524  20445953.26125   -602431.25025      3396.39025        35.24425
E27  25390962.70227   -252008.91927      3397.31027        45.15427  25390797.21725   -188177.69025      2536.71925        33.15225
E30  23778796.68225   -274062.14825      1584.96025        32.65125  23778630.89625   -211676.61625      1184.01425        30.44325
E34  24171817.99926   -372240.27226      2155.21626        36.07426  24171640.82126   -281404.52626      1610.26126        37.46426
E36  26740411.29826     62413.04226      -422.84326        38.79426  26740246.41325     46939.37325      -315.34825        33.52825
> 2023 11 29 03 23 05.0000546  0 23                      
G06  21128777.05227   -625050.53627      3637.62527        43.39527  21128598.07626   -469514.16126      2718.01226        39.57826
G11  23171641.10724   -865610.36624      5096.27024        24.43624  23171448.64024   -650269.26524      3806.00424        25.41724
G12  23263783.81827   -751786.82727      4372.61827        42.47527                                                                
G13  24526938.05424    259445.49324     -1628.40824        28.59924                                                                
G15  24812135.71626    175208.24526     -1055.04826        36.80426                                                                
G17  22381551.27425    159552.42825      -967.47625        34.49225                                                                
G19  20443809.74526    -63087.30026       314.58126        37.07126                                                                
G22  22449849.69224      2242.62924       -45.68624        29.28424                                                                
G24  21039144.20427   -420180.73227      2385.02527        44.58827  21038973.62226   -319715.30826      1780.62426        39.66526
R22  19216152.43425   -396714.65425      2228.12125        34.75425
R13  22442186.69726   -881927.09326      5153.51226        37.66626
R12  19666145.71127   -544804.28127      3134.33827        45.09027
R11  20989304.60726     79312.49526      -530.45626        39.19826
R23  21857452.60026   -977404.48926      5674.40826        36.36426
R21  21059648.50927    247734.28127     -1512.93327        41.98027
E02  26208856.78624     12278.64324      -100.29324        23.60824                                                                
E07  27011009.96726    127498.14626      -788.98426        38.44826  27010839.38526     95799.29826      -590.57526        35.67326
E15  25478227.49025   -337202.25425      4479.16525        32.52825  25478064.40325   -251727.34125      3346.18625        34.22825
E18  20445559.33425   -789095.72425      4547.32025        34.77625  20445387.55325   -605827.63625      3396.14825        33.13125
E27  25390618.54126   -255403.04426      3395.24726        40.86426  25390450.65725   -190714.09325      2536.41625        34.81325
E30  23778793.68426   -275647.35926      1585.70526        35.71926  23778628.19825   -212860.35525      1182.84925        30.16225
E34  24171705.27725   -374395.31825      2155.04925        33.48825  24171532.29626   -283013.94526      1610.46026        35.85726
E36  26740787.83826     62836.13526      -422.68726        37.00826  26740627.14924     47254.88424      -315.20924        29.39624
> 2023 11 29 03 23 06.0000557  0 24                      
G06  21128409.50627   -628690.35227      3639.98727        42.34327  21128236.22626   -472232.51026      2719.57626        40.28326
G11  23171001.94924   -870706.34424      5093.80424        26.74524  23170807.98324   -654073.16824      3807.52424        27.89124
G12  23263289.46027   -756160.72327      4375.01427        42.16627                                                                
G13  24527573.91424    261074.67724     -1627.19124        29.14124                                                                
G14  23499679.41024    135145.20024      -869.17024        24.07624                                                                
G15  24812657.65526    176264.41326     -1055.63426        37.47426                                                                
G17  22382082.20726    160519.25726      -967.21226        40.22026                                                                
G19  20444084.95426    -63401.11526       315.20726        39.17726                                                                
G22  22450180.36424      2288.31224       -47.44524        29.15724                                                                
G24  21039016.79227   -422565.43427      2385.31927        44.63227  21038852.20626   -321493.86726      1779.45326        39.62626
R22  19216064.29626   -398943.27226      2229.42026        38.93126
R13  22441549.93825   -887083.08425      5159.09525        35.34825
R12  19665880.69427   -547939.55527      3136.18227        45.26727
R11  20989764.48826     79841.95626      -530.31326        38.77726
R23  21856724.40526   -983078.24026      5673.12626        37.80426
R21  21060260.68527    249245.92227     -1511.03627        42.72027
E02  26209157.77824     12379.72124      -100.19024        26.74224  26209003.98424      8987.37824       -75.05824        25.34924
E07  27011480.94126    128286.98626      -789.30726        37.43726  27011316.05526     96397.52526      -588.82426        38.58326
E15  25477710.64825   -341683.25825      4480.97525        33.61025  25477541.26526   -255073.46826      3347.01426        36.36726
E18  20445026.60326   -793644.57926      4548.85126        38.52126  20444850.32525   -609224.09225      3397.07425        32.82325
E27  25390299.26227   -258799.59027      3396.39027        42.74727  25390134.07625   -193250.21525      2536.33925        33.28825
E30  23778822.46426   -277231.51126      1586.70826        35.60126  23778654.28024   -214044.64824      1184.51624        29.38224
E34  24171626.73125   -376551.37725      2154.94725        30.24225  24171451.05325   -284625.00825      1610.76725        31.94025
E36  26741211.14526     63259.15526      -423.12826        37.85926  26741036.66625     47570.68425      -314.85925        32.36925
> 2023 11 29 03 23 07.0000567  0 24                      
G06  21128012.58127   -632328.85027      3637.78927        45.35727  21127844.39825   -474949.71925      2716.69625        35.03725
G11  23170307.03025   -875803.00725      5096.33825        32.10025  23170136.74824   -657879.81724      3805.76624        27.43424
G12  23262755.52926   -760533.63926      4372.89526        41.26926                                                                
G13  24528176.79725    262701.06725     -1626.10825        31.14625                                                                
G14  23500154.88124    136016.53324      -872.94824        23.78624                                                                
G15  24813175.09626    177321.27826     -1057.68526        40.06626                                                                
G17  22382563.67426    161487.56926      -969.38426        36.70526                                                                
G19  20444326.58725    -63714.06825       313.65525        34.42025                                                                
G22  22450453.77425      2336.79225       -48.26725        30.85625                                                                
G24  21038868.69427   -424949.06027      2382.12727        43.91927  21038697.21326   -323272.29426      1778.42726        36.06426
R22  19215942.88027   -401174.13127      2227.66827        41.67427
R13  22440886.49826   -892238.71226      5152.88626        37.74426
R12  19665600.38826   -551072.76726      3133.35026        40.37526
R11  20990121.84126     80370.53426      -527.77826        40.31326
R23  21855970.42726   -988753.09426      5676.20026        38.90626
R21  21060832.98926    250759.62626     -1513.71626        39.81726
E02  26209486.05025     12480.19025      -100.18425        31.14925  26209327.16024      9057.74624       -73.60424        26.05524
E07  27011931.52925    129076.01825      -788.65925        35.02925  27011767.24326     96995.80426      -588.94026        37.08726
E15  25477149.73626   -346164.67826      4481.38326        38.72626  25476987.24926   -258419.98926      3345.77726        36.04226
E18  20444453.69926   -798189.58526      4546.13426        39.91126  20444284.31625   -612619.10725      3394.67125        32.58225
E27  25389955.69926   -262194.83126      3395.39826        41.18726  25389788.11525   -195786.17025      2535.91625        33.93825
E30  23778821.86425   -278812.36025      1587.83425        34.93325  23778652.18224   -215227.74024      1182.55624        27.95024
E34  24171495.72226   -378705.76426      2154.42326        38.76026  24171340.72925   -286233.20525      1607.61225        30.28425
E36  26741581.98825     63686.13525      -421.79225        34.59125  26741417.10225     47887.72625      -316.66825        30.11825
> 2023 11 29 03 23 08.0000578  0 23                      
G06  21127645.63527   -635965.40427      3636.86227        43.11227  21127482.54825   -477663.27925      2713.91225        30.49625
G11  23169676.56725   -880899.54725      5097.48325        33.02825  23169497.59124   -661684.91624      3805.62424        27.95824
G12  23262255.47627   -764906.51927      4373.33427        41.88527                                                                
G13  24528810.55824    264328.14924     -1627.79824        29.17924                                                                
G14  23500656.13423    136892.04623      -871.32523        18.54723                                                                
G15  24813699.43326    178377.73226     -1055.63726        38.45826                                                                
G17  22383078.71725    162456.72125      -969.82025        34.12825                                                                
G22  22450803.03225      2384.34225       -48.56325        34.08625                                                                
G24  21038740.38327   -427330.31327      2381.72427        43.09927  21038572.79925   -325050.59425      1778.45325        34.83525
R22  19215849.34427   -403400.08027      2225.32227        42.83327
R13  22440239.84526   -897391.72626      5150.37926        37.00726
R12  19665343.46627   -554203.90927      3130.63927        42.42627
R11  20990556.84027     80900.34027      -529.21327        41.78427
R23  21855230.53926   -994425.52826      5671.89026        39.48626
R21  21061417.28426    252273.92726     -1514.31326        36.43026
E02  26209838.00725     12580.74125      -100.64225        31.87225  26209676.71824      9129.12024       -75.44924        24.07824
E07  27012412.09625    129865.41625      -788.94625        33.12425  27012247.21026     97585.73426      -589.10426        36.52026
E15  25476629.89626   -350643.47526      4478.75426        40.84326  25476465.61026   -261765.08326      3344.66326        36.83826
E18  20443927.26426   -802734.80726      4544.59326        39.13326  20443748.88725   -616013.16125      3394.28725        32.81925
E27  25389649.31226   -265590.78826      3395.60826        38.32526  25389471.83425   -198321.82725      2535.96625        34.30325
E30  23778851.24425   -280390.50425      1587.02525        34.56925  23778680.06224   -216410.51424      1183.08924        28.66824
E34  24171420.47426   -380858.57926      2152.56326        38.12826  24171260.08525   -287840.90825      1607.80625        30.23725
E36                                                                  26741827.21824     48202.33024      -316.99224        29.16224
> 2023 11 29 03 23 09.0000588  0 24                      
G06  21127254.40627   -639601.46427      3636.34227        45.80927  21127090.71924   -480375.20324      2715.26524        26.96824
G11  23169004.13225   -885995.47425      5096.74825        31.74725  23168826.35525   -665490.33225      3805.35025        30.28825
G12  23261755.12226   -769278.69826      4371.12326        41.11826                                                                
G13  24529417.93724    265956.46324     -1628.66024        25.98524                                                                
G14  23501125.60923    137767.38023      -876.34623        21.42623                                                                
G15  24814203.38426    179435.14526     -1057.02226        37.03226                                                                
G17  22383560.78325    163425.49325      -968.99725        32.48025                                                                
G19  20444847.02725    -64330.23725       309.28825        30.97225                                                                
G22  22451108.22126      2432.73026       -48.91226        38.29926                                                                
G24  21038585.09126   -429709.24826      2376.79226        41.28826  21038416.00826   -326828.09126      1777.43726        35.56226
R22  19215738.12127   -405624.40727      2223.54827        44.54927
R13  22439568.01025   -902543.63825      5149.80925        33.51725
R12  19665067.65726   -557334.66626      3130.66126        41.05826
R11  20990968.75527     81431.93027      -532.01427        45.47627
R23  21854462.17126  -1000097.20526      5671.77526        39.95726
R21  21062022.26525    253788.80925     -1515.97825        32.27225
E02  26210153.98824     12681.97124      -100.94124        27.44824  26209991.80024      9201.27624       -74.50824        25.70624
E07  27012861.78525    130655.59025      -789.44925        32.34025  27012697.79826     98176.10626      -590.55326        35.60026
E15  25476076.17926   -355122.09626      4478.24926        40.13926  25475912.19326   -265109.91926      3344.76226        38.51926
E18  20443348.96426   -807276.59326      4544.06026        37.28326  20443183.77825   -619406.75025      3393.05725        30.54925
E27  25389278.16826   -268986.25926      3395.25926        37.17326  25389125.57425   -200857.09825      2534.83525        31.52025
E30  23778849.44525   -281965.88025      1586.13825        31.19625  23778678.56324   -217592.94724      1182.84624        26.03024
E34  24171312.54926   -383010.91826      2151.73226        38.51426  24171149.46124   -289448.42624      1607.13624        28.56924
E36                                                                  26742208.55424     48522.22024      -318.05224        26.90524
> 2023 11 29 03 23 10.0000599  0 23                      
G06  21126901.85028   -643236.42928      3635.15628        49.26728  21126727.37124   -483085.83124      2714.87424        27.34524
G11  23168362.57625   -891090.95225      5095.24425        30.65025  23168186.59825   -669295.09425      3805.36125        31.37025
G13  24530054.69724    267581.79524     -1628.75624        26.60924                                                                
G14  23501625.66323    138640.16123      -875.38823        19.82623                                                                
G15  24814728.62126    180493.67626     -1058.65426        39.16826                                                                
G17  22384071.03025    164394.21225      -969.44025        29.56825                                                                
G19  20445091.65826    -64638.80926       307.60626        35.50726                                                                
G22  22451455.98026      2481.30026       -48.06626        39.92926                                                                
G24  21038467.87226   -432087.64326      2377.59726        40.77726  21038294.29226   -328604.62926      1776.73726        35.52026
R22  19215648.48327   -407847.91527      2224.03727        46.85227
R13  22438984.61425   -907696.30925      5152.61225        32.83025
R12  19664822.72726   -560466.05526      3132.89926        37.23326
R11  20991384.86727     81964.34727      -531.89527        47.39727
R23  21853742.36927  -1005768.11027      5671.48227        42.78827
R21  21062671.91626    255304.88426     -1515.04326        39.04326
E02  26210521.23424     12783.47724      -101.58324        29.26524  26210339.85923      9276.24823       -75.90123        23.05323
E07  27013341.45325    131446.12125      -790.40725        32.36425  27013178.66625     98766.70525      -590.46325        34.96725
E15  25475562.03526   -359600.08326      4478.02726        38.99026  25475389.35526   -268454.09226      3344.77026        38.86726
E18  20442817.43227   -811820.06227      4543.31127        41.67127  20442648.64924   -622799.34824      3392.48024        26.80124
E27  25388980.17526   -272380.27026      3394.18826        36.96126  25388807.79424   -203391.91724      2534.79224        29.28624
E30  23778869.83126   -283536.31726      1583.11526        38.75726  23778707.04423   -218773.62423      1180.69023        23.47423
E34  24171234.00326   -385162.15326      2151.45426        35.99826  24171069.11724   -291054.64624      1606.17824        27.66724
E36                                                                  26742618.07124     48847.10824      -318.31124        24.46124
> 2023 11 29 03 23 11.0000609  0 24                      
G06  21126503.42628   -646870.83328      3635.06528        49.06528  21126335.84224   -485795.76924      2712.18324        27.27624
G11  23167688.64325   -896185.33525      5094.11125        32.81925  23167516.56225   -673099.30425      3805.05025        31.93625
G12  23260665.07725   -778009.09525      4368.67925        34.43525                                                                
G13  24530663.87524    269210.78224     -1627.28624        26.61024                                                                
G14  23502097.83622    139510.94322      -874.65722        17.44922                                                                
G15  24815222.07926    181552.51926     -1059.46826        36.37626                                                                
G17  22384556.69424    165364.03724      -969.74824        29.10424                                                                
G19  20445340.18626    -64947.41026       309.72026        37.03226                                                                
G22  22451765.36626      2529.96326       -47.66926        40.51826                                                                
G24  21038308.68226   -434465.98326      2378.85426        40.85026  21038140.79826   -330380.98126      1776.74926        35.74626
R22  19215534.86227   -410070.81427      2223.50327        46.44627
R13  22438284.89925   -912850.45125      5155.61025        31.65325
R12  19664527.73125   -563601.01025      3133.25425        35.34425
R11  20991788.08827     82496.81927      -531.94927        47.39027
R23  21852980.59627  -1011438.63227      5670.45127        42.79727
R21  21063236.12526    256821.16626     -1515.87226        38.43226
E02  26210832.11925     12885.54325      -102.34825        30.49625  26210660.03824      9358.26224       -73.12024        24.02024
E07  27013790.84225    132237.04225      -791.22325        32.38725  27013628.65425     99357.24625      -589.90125        34.85625
E15  25475005.62126   -364077.81126      4477.51226        39.31526  25474836.53826   -271797.67026      3344.26926        37.85426
E18  20442250.22526   -816363.08426      4542.63726        41.19126  20442084.14024   -626187.23324      3392.77824        25.17624
E27  25388629.41826   -275774.68226      3394.85926        38.54726  25388460.03524   -205927.40124      2536.11724        29.37024
E30  23778873.42826   -285113.46926      1581.68926        38.55626  23778706.14423   -219956.18123      1182.90723        23.18723
E34  24171123.67925   -387313.50325      2151.81725        33.81225  24170959.09324   -292660.72224      1605.83224        27.84124
E36  26743174.78524     65384.53524      -424.91424        28.43024  26742997.90824     49179.42624      -320.54024        24.55924
> 2023 11 29 03 23 12.0000620  0 24                      
G06  21126142.47628   -650504.56728      3634.04028        48.27628  21125973.39324   -488507.94924      2713.93224        26.47824
G11  23167043.19025   -901278.83325      5092.24825        31.04725  23166876.20525   -676903.52225      3804.64525        31.46125
G12  23260164.42325   -782375.95125      4371.31725        35.27425                                                                
G13  24531311.42624    270842.80524     -1629.36624        28.74924                                                                
G14  23502596.39122    140381.76122      -875.16222        13.31522                                                                
G15  24815751.21326    182611.40426     -1060.29226        36.19626                                                                
G17  22385067.84025    166333.53125      -969.23225        31.09325                                                                
G19  20445612.69726    -65256.37926       309.22226        37.14026                                                                
G22  22452099.33526      2578.86026       -48.52226        40.47726                                                                
G24  21038187.26626   -436844.23026      2378.91026        40.96426  21038016.98426   -332156.66026      1776.23626        35.55626
R22  19215444.02527   -412292.83727      2222.31027        45.97227
R13  22437653.53625   -918005.31825      5156.39825        31.72425
R12  19664261.21526   -566734.29926      3132.15826        36.01926
R11  20992221.88728     83029.82228      -532.53928        47.77628
R23  21852250.30227  -1017108.96327      5670.58027        43.02527
R21  21063849.80026    258338.26726     -1518.05826        39.14326
E02  26211181.07724     12988.47324      -103.20924        27.08624  26211009.89524      9438.09224       -75.58124        26.58824
E07  27014269.31125    133028.01325      -791.70725        33.00425  27014108.02225     99948.07925      -590.28425        34.94725
E15  25474483.08226   -368555.60326      4477.45726        39.43526  25474314.29926   -275141.19126      3343.89126        36.86026
E18  20441715.69526   -820905.91426      4542.34826        40.47726  20441549.90925   -629572.79325      3391.71825        30.04425
E27  25388313.43626   -279169.69826      3395.13626        37.85126  25388142.55525   -208463.20825      2535.36725        31.05425
E30  23778902.80826   -286695.54726      1582.50126        36.43526  23778737.02324   -221138.30224      1182.39624        25.42624
E34  24171044.53426   -389464.09226      2151.40326        36.43726  24170878.44924   -294265.81424      1604.99124        25.36924
E36  26743588.19924     65810.81624      -426.15224        29.13624  26743406.82524     49498.22324      -317.70224        26.40124
> 2023 11 29 03 23 13.0000630  0 23                      
G06  21125748.24927   -654136.90127      3632.84727        44.91827  21125579.76525   -491220.60525      2713.05125        32.28225
G11  23166368.95624   -906373.89424      5092.04424        28.91424  23166206.46925   -680706.99225      3802.71025        29.92325
G12  23259636.78926   -786747.53926      4371.57226        36.91926                                                                
G13  24531922.10425    272474.13425     -1629.87425        30.66025                                                                
G15  24816254.86426    183669.48826     -1057.34926        37.16126                                                                
G17  22385554.70326    167303.41826      -969.53926        36.25526                                                                
G19  20445854.92926    -65565.83026       312.95026        37.48726                                                                
G22  22452408.12126      2628.93726       -50.69426        38.88826                                                                
G24  21038039.46826   -439221.11326      2376.51126        40.46226  21037864.39025   -333931.25125      1774.95325        35.00525
R22  19215325.00727   -414512.93527      2220.75427        44.75727
R13  22436984.09925   -923158.19025      5152.87125        31.85925
R12  19663922.75026   -569863.37126      3129.51326        37.92126
R11  20992613.41627     83564.01627      -533.26927        46.63927
R23  21851487.33027  -1022777.95827      5669.25927        42.80327
R21  21064428.99926    259856.65526     -1519.47926        40.14826
E02  26211482.36824     13091.38024      -103.52824        28.31524  26211328.87524      9515.25424       -76.55124        28.53924
E07  27014717.20025    133820.26725      -792.31725        33.83925  27014557.41125    100539.59525      -591.18625        34.47225
E15  25473927.86726   -373031.66626      4476.21426        40.22826  25473761.78225   -278484.19025      3343.71625        34.91125
E18  20441152.08526   -825445.37926      4540.95526        39.86126  20440983.60225   -632956.92425      3391.64425        33.99525
E27  25387969.57426   -282569.08426      3394.15026        37.63226  25387796.29425   -210997.89625      2535.44025        32.39525
E30  23778901.60926   -288274.66326      1581.64326        35.59026  23778733.12625   -222319.83625      1181.95525        30.34425
E34  24170936.00926   -391613.24326      2148.84226        40.02726  24170769.92423   -295868.79123      1605.94423        22.88823
E36  26743969.23524     66238.90424      -429.71524        26.37224  26743787.56124     49817.48824      -318.71624        28.99624
> 2023 11 29 03 23 14.0000641  0 23                      
G06  21125389.99727   -657767.98627      3631.93627        43.65127  21125218.51626   -493932.11526      2712.04926        37.15526
G11  23165727.10125   -911467.79325      5091.56625        30.04725  23165566.41224   -684509.88424      3802.76924        27.07924
G12  23259141.23226   -791118.00126      4370.51126        37.31526                                                                
G13  24532572.65324    274103.64224     -1629.76424        29.19724                                                                
G15  24816790.29427    184728.65627     -1059.47227        42.47427                                                                
G17  22386066.44926    168274.57626      -972.18626        38.69426                                                                
G19  20446131.33826    -65873.03926       307.51026        39.99426                                                                
G22  22452756.18026      2680.30926       -52.60426        37.73226                                                                
G24  21037922.84926   -441595.49326      2372.11426        38.21826  21037742.97425   -335704.97025      1773.69625        34.80925
R22  19215250.35927   -416731.55127      2219.33527        44.63427
R13  22436348.23925   -928309.50025      5150.70425        29.90325
R12  19663689.51126   -572990.37226      3126.70526        38.39726
R11  20993041.22027     84099.26727      -534.89527        45.39727
R23  21850756.73626  -1028445.33226      5666.53326        40.84126
R21  21065045.97227    261376.01627     -1519.31427        42.80127
E02  26211841.52025     13194.80625      -103.73425        30.76825  26211675.43524      9592.55924       -77.14524        29.07124
E07  27015200.16625    134613.15525      -792.96425        33.01025  27015037.07925    101131.37425      -591.45225        35.42125
E15  25473397.83426   -377507.28826      4475.72126        40.44726  25473239.84325   -281825.35425      3342.85825        30.80825
E18  20440618.45426   -829985.67126      4539.94526        40.59026  20440449.07225   -636342.70225      3390.58625        34.94525
E27  25387656.59125   -285973.66925      3392.39125        34.14425  25387479.11425   -213531.56725      2534.04125        33.66225
E30  23778927.99126   -289855.39226      1580.64726        39.47626  23778760.70725   -223500.50125      1181.29525        32.94725
E34  24170859.26227   -393760.64327      2147.24727        43.22627  24170691.67824   -297470.83224      1602.18024        24.56924
E36                                                                  26744197.37725     50137.33325      -319.73225        31.02225
> 2023 11 29 03 23 15.0000651  0 22                      
G06  21124994.57127   -661398.48127      3630.89527        47.07727  21124828.18626   -496643.52426      2711.79526        36.26726
G11  23165056.76524   -916555.26324      5091.63624        28.51524  23164896.37624   -688312.61324      3803.15124        28.24524
G13  24533186.32924    275732.61324     -1629.70024        27.99424                                                                
G15  24817294.84427    185788.48527     -1059.51027        43.00127                                                                
G17  22386553.91126    169246.69326      -974.44026        35.71326                                                                
G19  20446375.36926    -66178.17926       303.86026        38.82826                                                                
G22  22453058.67126      2732.45526       -52.85926        38.70026                                                                
G24  21037771.75426   -443969.26626      2372.02926        38.84826  21037591.27925   -337478.82725      1773.71125        34.98225
R22  19215133.74027   -418949.62927      2218.49327        46.69227
R13  22435682.40025   -933461.11825      5151.02425        31.24225
R12  19663422.39626   -576116.52726      3125.76526        37.08926
R11  20993441.74327     84635.04727      -535.38727        47.03927
R23  21850000.36026  -1034112.65426      5667.93226        40.93826
R21  21065638.66227    262895.59927     -1518.86527        42.15727
E02  26212162.89724     13298.97724      -104.05224        27.81824  26211993.51424      9672.49824       -77.15224        27.59624
E07  27015652.85325    135406.46625      -793.50925        32.86325  27015487.06725    101723.21225      -592.00625        34.01625
E15  25472848.31426   -381982.39326      4475.18526        38.16026  25472687.02625   -285163.76625      3342.05425        32.30525
E18  20440055.44426   -834525.09426      4539.54926        41.30826  20439885.16225   -639732.16925      3389.68625        32.87725
E27  25387312.13025   -289366.31925      3391.02925        31.43925  25387133.15325   -216063.42025      2533.79725        33.20925
E30  23778929.49026   -291435.86526      1580.55726        39.59326  23778759.50724   -224682.55924      1179.58624        29.11624
E34  24170749.83827   -395907.84927      2147.14727        42.70127                                                                
E36                                                                  26744578.41425     50457.17125      -319.83125        30.43525
> 2023 11 29 03 23 16.0000662  0 24                      
G06  21124636.61827   -665028.74727      3631.41527        46.94427  21124467.23625   -499353.42725      2709.79225        33.75025
G11  23164418.50724   -921647.70524      5091.09924        26.56724  23164257.21825   -692116.09725      3803.76725        30.80525
G12  23258104.84925   -799856.95425      4366.60725        32.94125                                                                
G13  24533822.48824    277361.82724     -1630.11124        28.44624                                                                
G14  23504580.11823    143892.32723      -874.35123        18.60323                                                                
G15  24817822.47926    186848.33326     -1060.60826        41.15226                                                                
G17  22387067.15625    170219.01125      -973.57825        32.56125                                                                
G19  20446641.88426    -66483.55426       304.96426        36.75726                                                                
G22  22453397.13726      2784.00226       -52.12226        39.77026                                                                
G24  21037648.83926   -446343.08126      2373.78226        41.28226  21037468.36425   -339252.19125      1773.21925        34.77425
R22  19215049.79827   -421166.90027      2218.27527        46.63527
R13  22435063.02925   -938612.08925      5150.00425        31.26925
R12  19663173.26826   -579243.36426      3128.56526        36.97926
R11  20993874.64327     85171.08527      -534.95627        46.86327
R23  21849270.96427  -1039780.12627      5667.15627        42.93827
R21  21066252.03726    264415.52926     -1519.69026        40.64526
E02  26212513.35524     13402.87424      -104.38424        26.65624  26212341.87324      9753.46324       -76.28524        26.24424
E07  27016131.92125    136199.20825      -793.40725        33.02125  27015967.63525    102315.19325      -591.32325        33.01625
E15  25472326.67526   -386458.12926      4476.16226        37.60826  25472165.08725   -288504.94025      3343.16025        34.44725
E18  20439520.91426   -839064.16526      4539.19126        40.49326  20439351.53125   -643119.64425      3390.37325        31.65025
E27  25386990.45225   -292758.25425      3390.70025        33.66025  25386816.87225   -218597.45425      2534.38725        31.55025
E30  23778960.36826   -293016.50226      1581.07926        38.42626  23778788.58724   -225864.91524      1179.95024        26.31424
E34  24170670.09326   -398054.92626      2147.41926        41.22226                                                                
E36  26745148.31924     67528.53124      -432.49824        28.44624  26744989.72924     50774.86224      -319.42524        28.88024
> 2023 11 29 03 23 17.0000672  0 23                      
G06  21124243.89028   -668659.24328      3631.17728        48.18528  21124075.70725   -502064.49125      2711.05125        31.27325
G11  23163755.06624   -926742.71224      5091.36124        26.31624  23163587.48225   -695919.34825      3803.47325        30.53925
G12  23257577.21426   -804227.52326      4369.56626        35.91526                                                                
G13  24534425.67125    278991.10825     -1630.41525        29.50525                                                                
G15  24818324.03226    187907.52826     -1059.23726        39.68826                                                                
G17  22387553.11925    171189.97925      -971.35025        32.82125                                                                
G19  20446885.61626    -66788.19526       303.30426        36.32126                                                                
G22  22453710.12026      2834.40026       -50.08626        40.55426                                                                
G24  21037497.14426   -448717.72926      2375.39426        41.37626  21037314.87025   -341025.24725      1773.28625        34.36625
R22  19214926.58327   -423383.97127      2217.98927        46.26427
R13  22434389.99525   -943764.18625      5151.43925        31.49925
R12  19662886.36726   -582370.36126      3127.41226        36.04326
R11  20994273.36728     85706.92928      -534.94128        48.21828
R23  21848507.99327  -1045447.60127      5668.10827        43.86927
R21  21066839.93026    265935.51426     -1521.08726        40.61526
E02  26212835.33224     13503.15524      -104.55224        24.06724  26212662.05224      9830.45724       -76.57824        27.27324
E07  27016581.01025    136991.21825      -793.03325        32.77225  27016417.92325    102906.89325      -591.50025        32.91325
E15  25471783.45126   -390934.29326      4476.26726        39.06726  25471612.27025   -291850.57525      3342.85525        35.09525
E18  20438950.10926   -843604.01126      4539.80326        41.15626  20438787.62225   -646508.70325      3390.67025        30.74325
E27  25386648.98926   -296151.74926      3392.00926        35.55526  25386470.91225   -221132.25625      2535.36625        32.34025
E30  23778955.27226   -294598.23726      1581.99126        37.87026  23778787.38824   -227044.24724      1182.44224        25.67324
E34  24170561.86826   -400202.62726      2147.88626        39.95626                                                                
E36  26745549.14224     67957.20624      -430.44324        26.37724  26745371.36524     51093.20824      -319.79524        29.21024
> 2023 11 29 03 23 18.0000683  0 23                      
G06  21123883.54028   -672288.63828      3630.05428        48.16928  21123715.35625   -504774.97925      2710.83725        31.91125
G11  23163123.10423   -931837.65823      5089.11323        23.43123  23162947.72525   -699721.94625      3802.95925        30.15425
G12  23257076.56125   -808598.49225      4371.54825        34.66325                                                                
G13  24535071.42324    280620.82724     -1629.82424        27.87324                                                                
G15  24818857.66227    188966.44727     -1058.30327        42.48927                                                                
G17  22388062.76725    172159.52825      -968.79525        30.82825                                                                
G19  20447157.52726    -67092.61126       303.25626        38.16526                                                                
G22  22454044.38926      2885.67426       -52.54526        39.48326                                                                
G24  21037373.03026   -451091.38626      2373.60426        39.52426  21037193.45425   -342797.36325      1772.48425        35.15625
R22  19214839.34427   -425599.72827      2216.48727        46.69027
R13  22433756.53425   -948916.65325      5152.25325        31.84225
R12  19662623.74926   -585495.95626      3124.29226        36.47526
R11  20994701.77028     86243.47328      -536.00328        48.24028
R23  21847786.39227  -1051114.83527      5667.38327        42.42527
R21  21067420.92826    267456.30326     -1520.79126        40.98826
E02  26213185.19023     13604.28623      -104.35323        22.34823  26213011.01024      9907.81424       -77.20824        26.39824
E07  27017063.37625    137783.30325      -792.53725        32.50525  27016897.59125    103498.74425      -591.66325        31.95525
E15  25471242.62626   -395409.81726      4475.79826        37.36926  25471090.03125   -295196.76525      3342.02625        34.26725
E18  20438421.87527   -848142.80627      4538.70327        41.61127  20438252.79225   -649902.00425      3389.21425        29.74125
E27  25386334.80625   -299545.35825      3393.44425        33.38625  25386153.73125   -223666.30425      2534.58525        31.64725
E30  23778986.45026   -296178.89626      1580.73526        39.66926  23778815.56923   -228219.15923      1180.58723        23.31623
E34  24170483.62226   -402349.08626      2146.53726        41.42326                                                                
E36  26745943.36924     68386.13624      -428.35124        28.57324  26745782.98025     51413.62525      -320.22925        29.56125
> 2023 11 29 03 23 19.0000693  0 23                      
G06  21123489.91228   -675917.23028      3629.35128        47.54628  21123324.12725   -507485.07025      2710.20425        31.76925
G11  23162451.86823   -936932.03323      5092.21723        18.98623  23162278.58825   -703525.13325      3803.43525        30.63425
G12  23256545.62825   -812970.24025      4372.00525        34.39325                                                                
G13  24535679.70224    282249.74224     -1628.71324        28.15624                                                                
G15  24819356.21727    190026.12627     -1059.88127        41.98527                                                                
G17  22388548.73025    173130.04625      -969.48725        31.00125                                                                
G19  20447400.65926    -67396.44126       303.57326        37.61226                                                                
G22  22454362.46826      2937.83226       -53.11526        40.57926                                                                
G24  21037218.63726   -453463.48126      2371.60726        39.93026  21037041.45925   -344569.48525      1771.88325        35.18925
R22  19214721.22527   -427814.68727      2215.15927        46.43027
R13  22433085.89825   -954069.54525      5152.10525        32.40125
R12  19662346.74126   -588620.53626      3124.46326        37.78526
R11  20995101.69428     86780.54528      -536.77728        47.71728
R23  21847024.02027  -1056781.17127      5666.90327        42.83727
R21  21068008.82126    268977.11726     -1519.70126        40.44526
E02  26213508.96523     13709.51223      -103.81223        21.66523  26213329.39024      9984.75224       -76.37224        27.45824
E07  27017515.76325    138575.84125      -792.25325        32.29125  27017347.28025    104090.25425      -591.57425        31.78225
E15  25470699.40226   -399884.52926      4474.77026        38.34726  25470537.51425   -298541.48525      3342.19125        34.28125
E18  20437855.86726   -852680.48926      4537.67126        41.43326  20437688.58325   -653299.16225      3389.18125        30.50925
E27  25385987.64625   -302939.43425      3394.67625        33.78325  25385807.77125   -226200.72125      2534.39425        31.18725
E30  23778985.25126   -297759.15426      1580.20926        38.88026  23778815.86824   -229389.40324      1180.26724        23.64924
E34  24170377.19626   -404494.62726      2145.47626        41.35926                                                                
E36  26746322.60624     68814.53224      -427.70524        29.20824  26746163.71625     51734.28025      -320.87125        30.56625
> 2023 11 29 03 23 20.0000703  0 24                      
G06  21123098.38327   -679544.80927      3628.02827        46.62227  21122933.19825   -510194.35425      2709.22125        31.99125
G11  23161779.73423   -942023.96223      5092.26223        21.65123  23161609.15225   -707327.44025      3801.48125        30.53825
G12  23256012.59726   -817340.72126      4370.98826        35.72226                                                                
G13  24536290.38025    283878.70225     -1628.78825        29.76025                                                                
G14  23506389.66523    147375.35423      -870.60323        23.13123                                                                
G15  24819853.57326    191085.81826     -1058.94526        40.41826                                                                
G17  22389030.79725    174101.84425      -971.99825        32.69225                                                                
G19  20447639.29426    -67699.90226       302.93926        35.75526                                                                
G22  22454670.05526      2990.00426       -52.13826        41.30126                                                                
G24  21037062.44526   -455834.88526      2371.84426        40.25326  21036888.56525   -346339.94425      1770.64625        35.08825
R22  19214605.50527   -430028.15827      2213.70327        45.80027
R13  22432422.15725   -959221.54725      5152.20325        32.06125
R12  19662067.63426   -591745.16326      3125.20826        38.95926
R11  20995499.21827     87318.81427      -537.96227        47.22327
R23  21846258.65027  -1062446.47727      5665.23327        43.64027
R21  21068591.31826    270499.04526     -1522.00826        39.17926
E02  26213826.74523     13815.50723      -104.19423        21.23123  26213649.56824     10062.80924       -79.12224        27.91224
E07  27017964.55225    139368.87225      -792.43625        33.10025  27017797.26825    104682.98925      -592.38225        32.04725
E15  25470148.68326   -404359.02326      4474.09326        38.97126  25469985.29625   -301879.86225      3341.50725        34.61325
E18  20437291.95726   -857217.64826      4536.77026        40.35226  20437124.37325   -656701.14425      3388.20825        31.58625
E27  25385632.69225   -306332.86325      3394.74425        35.28525  25385461.21125   -228734.14925      2533.80125        31.02625
E30  23778984.35226   -299339.18426      1579.77026        38.14826  23778813.47024   -230559.38724      1180.75024        25.63424
E34  24170261.17626   -406639.60126      2144.50926        40.63026                                                                
E36  26746700.34524     69243.68524      -427.61624        26.24924  26746545.35225     52056.35625      -322.23425        31.38725
> 2023 11 29 03 23 21.0000714  0 24                      
G06  21122737.43327   -683172.21327      3628.00727        46.69827  21122572.84725   -512902.75625      2708.70925        31.64225
G11  23161135.48023   -947116.79123      5092.83223        23.39523  23160969.39525   -711129.39925      3802.68025        29.71725
G12  23255514.64226   -821710.87126      4370.08326        36.08426                                                                
G13  24536925.34025    285507.21625     -1627.77925        30.69925                                                                
G14  23506876.52823    148243.26523      -870.96823        23.44623                                                                
G15  24820388.70226    192145.58226     -1059.43026        40.74926                                                                
G17  22389549.43725    175074.14225      -972.71325        32.16625                                                                
G19  20447908.80726    -68003.76426       304.94926        36.41826                                                                
G22  22455012.11926      3042.02226       -52.70626        39.97226                                                                
G24  21036938.63026   -458206.38926      2372.52726        40.04826  21036766.55025   -348110.17625      1770.78825        35.12025
R22  19214519.76527   -432241.09327      2213.33927        45.79427
R13  22431802.18625   -964372.85525      5151.04425        32.41525
R12  19661816.70826   -594869.99926      3126.00526        39.18026
R11  20995935.71627     87857.06527      -537.72427        47.12827
R23  21845528.05627  -1068111.26727      5664.67127        43.22527
R21  21069210.98926    272022.61426     -1524.46226        39.32326
E02  26214176.90323     13918.15023      -102.15723        19.98223  26213999.42624     10140.74124       -77.89524        28.29124
E07  27018444.22025    140162.40625      -792.93925        32.90325  27018277.23625    105274.90225      -592.16225        31.57225
E15  25469625.54526   -408833.42226      4474.46626        39.51926  25469463.65725   -305213.88625      3341.84125        34.88225
E18  20436756.52826   -861754.38826      4536.72626        40.28426  20436590.74325   -660088.93025      3388.33525        31.42925
E27  25385320.60826   -309726.77126      3394.30726        35.59726  25385144.03025   -231267.82525      2534.40325        31.61925
E30  23779013.43226   -300919.19826      1580.28626        38.16926  23778841.95024   -231739.36124      1179.27024        25.03224
E34  24170183.53026   -408784.26826      2144.70226        40.12326                                                                
E36  26747117.05625     69673.88425      -429.11425        29.66025  26746956.96725     52378.22425      -321.36625        31.55625
> 2023 11 29 03 23 22.0000724  0 24                      
G06  21122346.20428   -686799.29428      3627.41028        48.49628  21122182.51725   -515609.46425      2708.56225        30.67325
G11  23160465.44323   -952211.77823      5092.87023        22.83923  23160299.65825   -714931.83725      3802.26025        29.73025
G12  23254988.50626   -826080.52026      4369.44126        36.81626                                                                
G13  24537532.42024    287135.65724     -1628.93524        28.70324                                                                
G14  23507346.00323    149110.06923      -872.44623        21.35823                                                                
G15  24820888.75626    193205.54526     -1059.73926        41.14126                                                                
G17  22390032.40325    176046.27925      -973.38025        30.76625                                                                
G19  20448154.63726    -68306.90426       303.04526        37.35926                                                                
G22  22455323.90326      3094.29426       -53.32126        40.09126                                                                
G24  21036784.83726   -460576.17326      2368.40326        38.70526  21036615.45425   -349880.79725      1770.41725        35.37325
R22  19214405.24427   -434453.17127      2212.68627        46.34727
R13  22431123.75625   -969523.82125      5149.99025        32.05525
R12  19661530.10626   -597993.81826      3123.59026        38.61226
R11  20996330.54328     88396.07828      -538.26028        47.77728
R23  21844769.28127  -1073776.46127      5665.91527        44.34127
R21  21069808.77526    273545.23626     -1521.82026        40.41326
E02  26214494.08323     14017.72323      -102.80523        22.85123  26214318.40524     10218.97424       -77.91524        28.61324
E07  27018896.90725    140955.56425      -793.35725        32.52925  27018726.92525    105870.91625      -591.65425        31.38225
E15  25469080.52226   -413308.16026      4474.55826        40.56026  25468911.73925   -308541.67225      3341.47625        34.35925
E18  20436194.11727   -866290.91927      4536.25127        41.57927  20436027.73225   -663476.96025      3388.39625        30.49125
E27  25384974.34825   -313120.04325      3393.60025        35.27125  25384797.47025   -233802.16525      2534.31425        31.68625
E30  23779012.53226   -302499.44326      1580.42726        39.23926  23778843.44924   -232916.56124      1181.27024        23.73824
E34  24170078.00326   -410928.66026      2143.95626        39.34026                                                                
E36  26747498.09225     70104.99225      -430.80825        30.84325  26747338.60325     52700.17125      -321.19225        31.52125
> 2023 11 29 03 23 23.0000735  0 24                      
G06  21121986.75328   -690425.33428      3626.84128        47.57028  21121820.96825   -518317.25525      2708.74325        31.22725
G11  23159825.38724   -957308.08224      5092.68724        23.53024  23159660.80025   -718734.09925      3802.50325        30.84025
G12  23254480.35826   -830451.17226      4371.05126        36.74326                                                                
G13  24538172.77624    288761.10424     -1629.24524        27.25624                                                                
G14  23507843.65823    149982.38523      -870.91223        21.05423                                                                
G15  24821419.08926    194264.81626     -1058.84426        38.64826                                                                
G17  22390547.44725    177018.17825      -972.39425        32.10725                                                                
G19  20448419.65425    -68608.53225       299.42725        35.31425                                                                
G22  22455662.36826      3146.97226       -53.78926        40.10926                                                                
G24  21036663.42126   -462945.47526      2368.34326        39.77126  21036494.03825   -351650.91425      1770.16925        34.99225
R22  19214327.89827   -436664.21827      2211.82627        45.96627
R13  22430481.60125   -974675.29225      5151.22125        31.70925
R12  19661269.88626   -601116.86826      3122.12226        39.50826
R11  20996758.94627     88935.29327      -538.71827        47.12427
R23  21844041.38527  -1079441.21927      5665.04927        45.26027
R21  21070426.64726    275067.40526     -1521.73626        39.43526
E02  26214843.04224     14114.42024      -103.58524        23.78824  26214669.16224     10297.09824       -78.42024        28.44324
E07  27019376.57525    141749.21225      -793.71425        33.83925  27019207.19225    106470.68725      -592.40725        30.69325
E15  25468553.18826   -417781.84726      4473.79426        39.88626  25468389.80125   -311882.74325      3341.19625        34.63525
E18  20435661.38626   -870826.67926      4535.89726        40.78726  20435493.50225   -666864.16525      3387.63925        30.54925
E27  25384658.96626   -316512.99626      3392.96526        36.12826  25384481.18925   -236336.38425      2534.25925        30.76625
E30  23779040.11326   -304078.77626      1579.67226        37.65026  23778870.73023   -234095.42623      1181.24123        22.71623
E34  24169991.36326   -413072.48326      2144.06326        38.67026  24169826.77723   -311863.47323      1599.12823        23.03723
E36  26747912.10625     70536.40225      -432.01725        30.88225  26747751.11725     53022.24425      -321.12425        32.28725
> 2023 11 29 03 23 24.0000745  0 24                      
G06  21121598.82127   -694050.63427      3625.30227        46.45827  21121430.63825   -521027.37925      2706.07725        31.47225
G11  23159152.05324   -962406.06924      5092.03624        23.79424  23158991.36425   -722535.69425      3801.11425        30.38925
G12  23253943.13026   -834820.55326      4369.35026        36.95326                                                                
G13  24538784.35324    290390.34524     -1630.13324        28.43124                                                                
G14  23508310.73524    150856.11724      -871.75524        23.94024                                                                
G15  24821920.34226    195324.72626     -1059.65426        39.26326                                                                
G17  22391029.81325    177990.86025      -973.60625        31.43325                                                                
G19  20448659.48825    -68908.37025       297.52825        32.73725                                                                
G22  22455972.05426      3200.42626       -53.88626        41.04826                                                                
G24  21036510.52726   -465313.94826      2368.85226        40.32026  21036342.34325   -353419.91525      1768.63025        35.25825
R22  19214209.18027   -438873.81227      2210.06227        45.40427
R13  22429818.76025   -979826.97225      5151.42725        30.42525
R12  19660982.38526   -604238.81926      3122.37026        39.74826
R11  20997160.36827     89475.61427      -540.09027        46.55027
R23  21843276.91427  -1085105.00727      5664.34327        43.79627
R21  21071022.33526    276591.40926     -1523.48326        37.73126
E02  26215162.02123     14208.02923      -104.12123        23.23823  26214990.24024     10375.81724       -78.33924        27.82024
E07  27019827.16325    142542.92525      -793.85625        32.56825  27019658.08024    107073.43624      -593.23124        28.42824
E15  25468000.37026   -422255.39526      4472.99426        39.44226  25467838.18325   -315223.67625      3340.64525        34.54125
E18  20435089.68226   -875361.55626      4534.48426        39.14726  20434929.89225   -670251.89125      3386.69725        33.14725
E27  25384305.21126   -319905.82926      3392.40426        36.28126  25384134.32925   -238870.38125      2534.09425        29.68725
E30  23779041.91226   -305657.96926      1578.47526        36.13826  23778867.43324   -235274.30224      1179.50024        24.64424
E34  24169886.73626   -415215.32026      2142.44626        39.18326  24169721.85024   -313461.03324      1597.16724        24.21924
E36  26748292.84225     70968.82825      -433.16625        30.97425  26748133.35325     53342.42725      -322.39825        31.32025
> 2023 11 29 03 23 25.0000756  0 24                      
G06  21121236.67227   -697674.52727      3624.64427        46.83327  21121069.98825   -523733.29225      2706.60925        31.04925
G11  23158512.29623   -967498.46523      5092.32323        21.49123  23158352.20625   -726337.12925      3801.39425        30.80625
G12  23253439.17926   -839189.96726      4370.97126        37.18926                                                                
G13  24539420.51325    292019.66125     -1629.37225        29.83225                                                                
G14  23508809.29023    151730.91323      -871.64623        23.36723                                                                
G15  24822449.17626    196385.28026     -1060.56526        37.61126                                                                
G17  22391540.95925    178965.69225      -975.55725        32.04425                                                                
G19  20448928.70125    -69208.07125       298.19125        33.35725                                                                
G22  22456310.22026      3253.98126       -53.10626        40.56026                                                                
G24  21036388.51126   -467681.39326      2368.09026        40.41226  21036220.92725   -355188.12425      1768.04325        35.46725
R22  19214123.73927   -441082.14327      2208.81227        45.56127
R13  22429197.88925   -984978.44825      5152.26825        30.23225
R12  19660729.96026   -607360.76826      3122.75426        39.50526
R11  20997596.26727     90017.14027      -540.82327        46.61027
R23  21842551.71627  -1090767.90927      5663.30727        43.68727
R21  21071630.31426    278117.33626     -1525.66526        39.47426
E02  26215511.87923     14298.46423      -104.51323        22.35823  26215338.89924     10454.63824       -78.74024        26.78024
E07  27020306.83125    143337.09525      -794.39925        33.07725  27020138.34725    107679.26225      -593.55625        30.35725
E15  25467479.93126   -426728.08426      4472.14826        39.84426  25467316.24425   -318563.84825      3339.98625        34.25825
E18  20434561.74726   -879895.60426      4533.68526        39.52126  20434395.66225   -673637.90025      3385.80925        32.01325
E27  25383993.42726   -323298.29326      3391.85526        36.60126  25383818.64825   -241403.49625      2532.87625        29.87025
E30  23779070.69226   -307236.56726      1578.06026        37.34526  23778897.11224   -236453.72724      1178.71224        24.98024
E34  24169808.19026   -417357.26826      2141.57826        39.18026  24169644.50323   -315059.14823      1595.71523        22.00023
E36  26748704.45725     71402.49225      -434.14625        32.55225  26748544.66825     53665.22925      -322.55925        30.74125
> 2023 11 29 03 23 26.0000766  0 24                      
G06  21120845.74328   -701298.45928      3624.81928        47.98428  21120680.55725   -526439.28725      2706.29225        30.05825
G11  23157841.96023   -972591.53023      5092.19823        17.67823  23157682.77025   -730138.43825      3801.67825        30.78025
G12  23252909.74626   -843558.55826      4368.40326        37.49526                                                                
G13  24540028.49224    293649.33124     -1630.82524        28.77124                                                                
G14  23509274.56823    152603.52723      -872.45523        21.52823                                                                
G15  24822956.12526    197446.75526     -1062.23026        40.94926                                                                
G17  22392025.72325    179940.48925      -975.50625        30.33725                                                                
G19  20449176.33025    -69508.76725       300.55925        35.11825                                                                
G22  22456617.50726      3307.33926       -53.52326        39.87426                                                                
G24  21036243.41226   -470049.03126      2367.94226        39.25726  21036070.43125   -356956.09625      1767.89425        35.43025
R22  19214017.61227   -443290.21527      2208.65827        46.71727
R13  22428517.36125   -990129.53825      5150.66025        30.45925
R12  19660444.25826   -610482.35826      3121.29326        38.95326
R11  20997996.19028     90558.52228      -540.60528        47.51028
R23  21841791.44227  -1096431.00827      5664.07627        43.13027
R21  21072194.22326    279643.21026     -1526.80326        40.15426
E02  26215832.65723     14402.59823      -104.20223        21.12723  26215656.37924     10535.66224       -78.77924        26.31224
E07  27020759.51725    144131.85725      -795.01425        32.67125  27020589.23525    108282.21925      -592.88925        30.22025
E15  25466929.81126   -431200.91226      4472.99326        38.57526  25466764.92625   -321904.33525      3340.49725        34.82325
E18  20433999.33726   -884429.01426      4533.52826        41.06526  20433832.95225   -677023.34025      3384.96525        30.78725
E27  25383646.86726   -326690.29826      3391.48726        35.56826  25383472.68825   -243936.45225      2533.73725        30.26725
E30  23779059.89926   -308815.19926      1578.77926        38.69626  23778896.21323   -237633.36323      1180.15723        22.44123
E34  24169699.06626   -419498.57826      2141.46226        39.00926  24169530.58224   -316657.80024      1599.66224        24.28224
E36  26749085.79325     71835.86225      -434.57225        31.45525  26748926.00425     53989.98625      -323.09525        31.21625
> 2023 11 29 03 23 27.0000777  0 24                      
G06  21120488.39028   -704922.52628      3624.59128        49.31528  21120320.80624   -529144.56224      2706.18824        27.89024
G11  23157208.49823   -977682.54923      5090.99323        21.90423  23157043.61225   -733939.73025      3801.94425        31.82125
G12  23252411.49026   -847928.20826      4369.41126        35.93026                                                                
G13  24540658.95524    295274.26424     -1627.79724        27.03824                                                                
G14  23509771.02423    153477.31223      -872.28323        18.77423                                                                
G15  24823487.05827    198507.19527     -1060.46627        41.66227                                                                
G17  22392544.36424    180915.46824      -975.46824        29.20724                                                                
G19  20449449.74126    -69810.13826       301.62326        36.99326                                                                
G22  22456949.67726      3360.62826       -53.72026        39.01326                                                                
G24  21036126.19326   -472416.46726      2368.06526        38.07926  21035949.91525   -358723.71725      1767.54925        35.43125
R22  19213916.58227   -445497.98627      2208.06027        47.14627
R13  22427820.64325   -995280.98125      5151.44425        29.56725
R12  19660188.23526   -613604.18126      3122.10426        36.92426
R11  20998426.99128     91099.57128      -540.75428        48.13828
R23  21841062.34727  -1102094.30127      5663.69427        43.28027
R21  21072806.40026    281168.86326     -1525.34026        39.36026
E02  26216180.11624     14506.64524      -104.54024        24.44324  26216004.73824     10614.31024       -77.00324        27.28524
E07  27021242.48325    144926.42125      -795.29825        31.80125  27021069.80325    108875.03925      -592.46125        30.62225
E15  25466409.97126   -435673.67926      4473.22826        38.41826  25466242.68726   -325244.74626      3340.79126        35.58126
E18  20433466.60527   -888962.46627      4533.83327        42.41927  20433299.62124   -680409.23524      3385.85324        28.99324
E27  25383329.68725   -330082.84825      3391.70925        35.36325  25383156.70625   -246470.25425      2534.47025        32.17725
E30  23779092.87726   -310393.95126      1579.24226        39.40426                                                                
E34  24169617.52226   -421640.17826      2142.01626        37.60426  24169453.83524   -318256.99024      1600.16924        25.79324
E36  26749500.40625     72268.73225      -433.89625        34.32025  26749337.91925     54319.11825      -322.42825        32.32825
> 2023 11 29 03 23 28.0000787  0 24                      
G06  21120096.56128   -708545.54028      3623.58128        49.87128  21119931.37624   -531845.18524      2705.57624        27.88024
G11  23156544.15823   -982770.22823      5089.69623        17.76823  23156374.17625   -737740.88425      3800.65825        31.87825
G12  23251875.76125   -852297.74025      4369.84325        32.85325                                                                
G13  24541254.34324    296897.18524     -1627.36924        24.17224                                                                
G14  23510241.09923    154352.41523      -872.46423        18.29823                                                                
G15  24823993.40727    199567.23627     -1059.56427        42.16727                                                                
G17  22393029.42824    181884.94524      -971.38324        25.12224                                                                
G19  20449696.77026    -70111.23726       302.95026        38.39026                                                                
G22  22457257.56426      3414.08426       -53.77426        37.64226                                                                
G24  21035962.80625   -474783.24625      2367.92025        35.33825  21035799.71926   -360491.14226      1766.99426        35.62926
R22  19213819.15028   -447704.49728      2206.82528        47.60228
R13  22427185.98224  -1000432.23824      5151.37924        29.10024
R12  19659894.43825   -616723.08625      3119.08425        34.76325
R11  20998837.10828     91641.72628      -541.67528        48.55128
R23  21840301.47427  -1107756.68427      5663.00327        42.61727
R21  21073392.79426    282695.26026     -1526.23126        40.00426
E02  26216496.09724     14611.24924      -104.92924        26.00124  26216324.01724     10695.21024       -78.20024        26.53524
E07  27021693.67125    145720.61425      -795.29325        30.99725  27021519.49125    109467.90325      -593.16725        29.65825
E15  25465859.85226   -440146.44026      4472.88026        36.83126  25465690.76926   -328585.05526      3340.17726        35.53026
E18  20432904.19527   -893495.43527      4532.90927        42.79127  20432736.91124   -683796.09824      3384.99524        27.50424
E27  25382982.22725   -333475.72025      3392.03325        33.56025  25382810.74625   -249004.09525      2533.53625        33.40925
E30  23779085.08226   -311972.68426      1578.73826        39.85726                                                                
E34  24169510.49626   -423781.07226      2140.89526        37.56526  24169345.01124   -319848.57024      1599.02324        25.65124
E36  26749880.84325     72698.39825      -433.39725        33.48525  26749718.65525     54652.26225      -323.25625        31.76725
> 2023 11 29 03 23 29.0000798  0 24                      
G06  21119735.91128   -712167.79728      3622.59228        49.04828  21119571.62524   -534545.15624      2705.26024        29.02724
G11  23155906.50023   -987855.65823      5089.10123        21.10623  23155735.01825   -741541.12825      3800.62825        31.25025
G12  23251374.80825   -856666.84225      4369.82025        32.89625                                                                
G13  24541895.59924    298527.40124     -1629.36124        24.55324                                                                
G14  23510733.05823    155229.20623      -873.08223        19.38023                                                                
G15  24824522.24127    200628.44527     -1061.29727        42.41527                                                                
G17  22393536.07823    182852.97623      -969.21323        22.73323                                                                
G19  20449968.38126    -70411.33126       300.71426        38.52426                                                                
G22  22457599.02826      3467.99226       -54.15326        38.65426                                                                
G24  21035844.68826   -477148.87826      2366.92926        37.43526  21035678.60325   -362257.10925      1766.34825        35.49025
R22  19213727.41328   -449909.47128      2205.48328        47.51828
R13  22426549.52324  -1005582.46524      5149.88524        29.31024
R12  19659650.10726   -619842.21626      3118.13626        36.12626
R11  20999265.21128     92184.67928      -542.81828        48.70128
R23  21839573.57827  -1113418.06927      5661.64027        41.86627
R21  21074008.26826    284222.66126     -1526.81226        39.99326
E02  26216845.05623     14716.77623      -105.05923        23.48323  26216674.17424     10779.10224       -78.88124        26.18524
E07  27022173.93825    146515.76125      -795.26825        30.73425  27022000.35824    110061.72524      -593.16524        29.23924
E15  25465328.32026   -444618.47126      4471.87726        37.54626  25465170.03025   -331924.11825      3339.52525        35.37025
E18  20432369.96527   -898027.52227      4531.51727        42.11827  20432205.07924   -687181.45924      3384.08324        27.59524
E27  25382663.84725   -336867.69725      3392.20025        34.20025  25382495.36425   -251536.94525      2533.24925        33.12725
E30  23779120.45726   -313550.82126      1577.86026        39.28926                                                                
E34  24169434.94826   -425921.16926      2139.65726        38.88026  24169267.66424   -321436.43724      1597.57024        25.14124
E36  26750293.35725     73123.70425      -433.10125        32.60925  26750130.87025     54990.45325      -324.12625        30.93625
> 2023 11 29 03 23 30.0000808  0 24                      
G06  21119345.58128   -715788.56428      3621.50328        49.10328  21119181.29525   -537248.39825      2704.02925        29.81625
G11  23155239.16122   -992938.98822      5087.68122        16.56422  23155066.18125   -745341.28725      3799.95825        31.49125
G12  23250846.87425   -861035.35825      4368.90225        32.51225                                                                
G13  24542504.17824    300157.64324     -1632.22124        25.96124                                                                
G14  23511204.63222    156104.47922      -872.72222        15.42122                                                                
G15  24825023.49427    201690.34027     -1062.82527        42.51627                                                                
G17  22394009.45023    183819.55923      -966.56123        19.48423                                                                
G19  20450213.01226    -70709.38926       297.34126        38.46126                                                                
G22  22457911.71126      3522.58226       -54.37326        38.05226                                                                
G24  21035692.39326   -479512.71726      2364.30826        37.36026  21035528.10725   -364022.79825      1765.43525        35.01225
R22  19213617.68927   -452112.84627      2204.18527        47.14727
R13  22425889.38024  -1010731.94324      5148.15524        29.32924
R12  19659372.79926   -622960.96826      3118.12726        35.75626
R11  20999661.53728     92728.95628      -543.61528        48.51928
R23  21838820.79927  -1119078.72627      5660.71627        42.00727
R21  21074592.26326    285751.68226     -1530.45126        40.00426
E02  26217163.13624     14823.25124      -105.50824        23.53624  26216993.45324     10863.47424       -79.20124        27.74324
E07  27022624.52625    147310.73925      -795.42625        30.85425  27022450.64724    110655.23824      -593.48624        29.30424
E15  25464785.09626   -449089.86326      4470.84026        37.39326  25464618.41225   -335263.21125      3338.81125        35.13825
E18  20431806.65527   -902558.53627      4530.25227        42.02927  20431641.46924   -690564.69824      3383.84924        28.04924
E27  25382316.68825   -340259.87325      3392.01125        35.07425  25382148.80425   -254069.18125      2532.57825        32.74625
E30  23779119.25826   -315128.39426      1576.96926        39.16626                                                                
E34  24169325.82426   -428060.25826      2138.24826        38.28526  24169160.33824   -323033.06524      1597.46824        25.49124
E36  26750675.59325     73544.12825      -433.48925        32.49725  26750513.10525     55315.56025      -324.79825        30.82225
> 2023 11 29 03 23 31.0000819  0 24                      
G06  21118985.83028   -719409.53728      3621.78028        49.07128  21118821.84424   -539952.30324      2704.66224        28.63124
G11  23154602.40224   -998025.24324      5087.96224        25.87624  23154427.32425   -749141.62425      3800.85525        31.20925
G12  23250346.52025   -865403.99425      4368.24725        33.69225                                                                
G13  24543153.82824    301787.46424     -1630.76624        26.70724                                                                
G14  23511700.18923    156977.15323      -873.27323        18.37623                                                                
G15  24825554.42626    202751.25426     -1060.82026        41.33026                                                                
G17  22394524.49323    184785.70323      -967.15123        22.44923                                                                
G19  20450487.92226    -71006.78626       296.13826        38.29326                                                                
G22  22458246.57926      3576.29826       -52.44126        37.80926                                                                
G24  21035574.57526   -481876.14026      2364.02026        38.20926  21035407.59025   -365788.05625      1765.68825        35.02325
R22  19213531.64927   -454316.27727      2204.17227        46.78227
R13  22425277.20425  -1015881.55525      5148.09625        30.73225
R12  19659124.87125   -626079.55625      3118.67625        35.02525
R11  21000093.83828     93272.62928      -543.06828        48.00928
R23  21838091.70427  -1124738.88127      5659.33327        42.90827
R21  21075205.93926    287281.44826     -1531.15926        39.14726
E02  26217509.39624     14929.40424      -105.68324        26.26024  26217343.61124     10944.77824       -79.56624        27.40924
E07  27023105.09425    148108.97725      -795.72125        29.69125  27022932.11324    111248.86424      -592.84624        29.33524
E15  25464265.55626   -453560.66926      4471.29226        38.61026  25464096.77325   -338602.48725      3339.47725        35.07425
E18  20431273.62427   -907088.96227      4530.75327        42.19627  20431108.13824   -693945.68024      3383.33824        27.54824
E27  25382003.70426   -343652.14326      3391.85226        35.94726  25381832.52325   -256602.27725      2533.45525        32.11725
E30  23779142.34226   -316705.46726      1577.52326        38.56326                                                                
E34  24169248.47726   -430198.68926      2138.84326        36.98526  24169082.39224   -324628.61024      1597.68824        26.47524
E36  26751085.40925     73979.01125      -434.40125        32.46325  26750924.72025     55640.13125      -324.06825        31.28925
> 2023 11 29 03 23 32.0000829  0 24                      
G06  21118597.89928   -723029.93228      3620.85728        49.57228  21118432.71324   -542660.46224      2704.09724        25.51524
G11  23153932.66625  -1003113.99125      5088.68925        32.49825  23153758.18725   -752939.90825      3800.92225        31.75725
G12  23249809.89225   -869772.63525      4368.28325        34.43325                                                                
G13  24543767.20424    303415.32324     -1627.63524        27.18824                                                                
G14  23512164.56724    157853.41524      -876.58824        27.24424                                                                
G15  24826053.88126    203812.23926     -1060.48526        40.08126                                                                
G17  22395009.25823    185750.03823      -967.35623        20.42923                                                                
G19  20450724.75826    -71304.22926       296.17726        39.10826                                                                
G22  22458554.76626      3630.91126       -56.07826        37.52626                                                                
G24  21035414.48626   -484240.22726      2364.91626        36.66226  21035257.39425   -367553.41125      1765.19625        34.98425
R22  19213427.02127   -456519.00627      2202.92927        46.99727
R13  22424626.35425  -1021031.16925      5148.74125        31.81825
R12  19658825.67825   -629197.22225      3119.28125        30.98625
R11  21000490.46327     93817.28127      -543.89027        46.43927
R23  21837328.13227  -1130399.33027      5660.34527        43.27827
R21  21075780.94026    288811.29426     -1529.89126        38.55926
E02  26217827.77625     15035.32025      -106.06125        33.01225  26217665.58824     11023.95224       -78.84024        27.69124
E07  27023555.98124    148909.13824      -795.57724        28.18524  27023382.70125    111841.98125      -593.02125        30.06425
E15  25463716.93626   -458032.40526      4471.55626        38.82126  25463544.55525   -341941.20125      3339.28125        34.73225
E18  20430712.11227   -911619.68527      4530.51727        43.04327  20430545.12824   -697328.72724      3383.42324        26.59724
E27  25381659.54326   -347044.40326      3391.88026        35.57426  25381486.86225   -259134.98525      2533.43225        33.08925
E30  23779144.74126   -318283.20726      1577.57426        39.25426                                                                
E34  24169140.85225   -432337.57025      2138.35325        34.39225  24168976.56624   -326225.29124      1597.36924        28.27824
E36  26751465.84625     74414.37025      -435.27825        32.43525  26751306.65625     55964.49625      -324.71325        30.35725
> 2023 11 29 03 23 33.0000840  0 24                      
G06  21118236.04928   -726649.38128      3619.72328        49.17128  21118073.26224   -545366.21124      2703.49724        27.56424
G11  23153294.40825  -1008202.44925      5089.55425        31.56925  23153119.92925   -756739.35625      3799.80725        32.05325
G12  23249307.73925   -874140.83125      4368.33025        34.28625                                                                
G13  24544409.35924    305044.20624     -1629.17724        28.22724                                                                
G14  23512661.92324    158729.88024      -876.89624        27.09724                                                                
G15  24826586.61226    204873.93226     -1061.05226        40.51626                                                                
G17  22395524.60123    186712.21123      -967.82823        18.94523                                                                
G19  20450998.76826    -71601.28926       296.61826        38.55526                                                                
G22  22458894.13126      3686.11526       -55.28026        37.98526                                                                
G24  21035298.76626   -486603.09526      2363.11926        37.74626  21035137.17825   -369317.12525      1764.05025        34.75625
R22  19213328.09027   -458720.48527      2201.66527        46.86427
R13  22423992.29325  -1026180.96425      5148.75625        31.50825
R12  19658576.55125   -632315.32225      3118.31725        32.29125
R11  21000917.66727     94362.65027      -544.74827        47.33527
R23  21836603.53427  -1136058.76827      5659.63527        43.01927
R21  21076445.58026    290341.16026     -1530.71326        39.00326
E02  26218177.03425     15141.69325      -106.27525        31.46425  26218015.14624     11104.10424       -79.53924        27.64524
E07  27024035.64924    149708.04324      -795.54824        28.87224  27023864.16825    112436.47125      -593.74625        30.01225
E15  25463194.39726   -462503.15726      4470.64626        38.96026  25463023.51625   -345279.23925      3338.49325        34.80925
E18  20430178.78227   -916149.43527      4529.52427        42.64827  20430012.39724   -700710.74424      3382.51924        28.08624
E27  25381342.66226   -350436.54126      3391.82426        36.07826  25381170.58125   -261667.45625      2533.18125        32.81425
E30  23779177.11826   -319860.50126      1577.11626        38.82626                                                                
E34  24169071.00025   -434475.81125      2138.69325        35.15425  24168898.91924   -327821.12224      1596.12024        27.72524
E36  26751879.85925     74849.94325      -436.06925        33.18225  26751718.87025     56290.04425      -324.79525        31.11825
> 2023 11 29 03 23 34.0000850  0 24                      
G06  21117846.91927   -730266.80227      3615.54227        47.25827  21117679.33525   -548067.87425      2699.53625        32.07025
G11  23152624.37225  -1013290.61425      5088.39225        32.05525  23152451.39125   -760536.74525      3796.79925        30.92225
G12  23248780.40425   -878507.76425      4366.93125        33.84825                                                                
G13  24545008.04524    306674.64224     -1631.18424        26.48724                                                                
G14  23513133.49624    159605.01324      -879.00824        25.03924                                                                
G15  24827087.86526    205935.83126     -1061.77026        40.82526                                                                
G17  22396012.36325    187682.66025      -973.86325        30.35225                                                                
G19  20451241.00026    -71898.42726       297.88626        38.03626                                                                
G22  22459200.51926      3739.62026       -51.43126        36.66726                                                                
G24  21035150.06926   -488964.84826      2362.58426        39.33826  21034987.28125   -371080.18525      1762.98125        34.59425
R22  19213221.06427   -460920.27527      2199.13527        46.08027
R13  22423321.35825  -1031331.24225      5149.96025        31.21325
R12  19658291.44825   -635433.55725      3118.10125        35.02925
R11  21001338.87627     94908.97127      -547.26627        46.50627
R23  21835842.36126  -1141716.35726      5657.76926        41.41826
R21  21077000.79626    291871.67226     -1530.38326        40.51026
E02  26218497.81225     15249.01725      -106.83225        32.07225  26218332.92624     11184.15824       -79.51124        26.17024
E07  27024487.13725    150504.67625      -795.69925        30.23725  27024314.75625    113031.40625      -593.96725        33.78725
E15  25462634.68526   -466971.94626      4467.64326        39.05726  25462472.79725   -348617.88125      3336.09025        33.83225
E18  20429618.46926   -920677.79026      4527.92426        40.68026  20429449.68624   -704092.23324      3381.21124        28.84124
E27  25380994.90325   -353829.08625      3391.86025        35.31625  25380824.32125   -264199.26625      2534.33925        32.18825
E30  23779175.31926   -321436.94726      1575.64126        37.46226                                                                
E34  24168965.47326   -436612.73326      2136.89126        39.49126  24168792.19324   -329416.10124      1594.83824        25.24424
E36  26752264.19325     75285.78125      -436.86225        32.12425  26752101.70525     56614.74725      -324.67925        31.38925
> 2023 11 29 03 23 35.0000861  0 23                      
G06  21117487.16827   -733885.07727      3618.63327        45.33427  21117323.18124   -550764.16424      2700.52024        28.48624
G11  23151982.21625  -1018373.86525      5085.99125        29.97025  23151813.43324   -764335.59024      3799.15024        27.89624
G12  23248280.05126   -882875.27926      4366.78626        39.06926                                                                
G13  24545653.79724    308305.13624     -1631.00524        28.10524                                                                
G14  23513632.35123    160478.81423      -873.77823        20.87323                                                                
G15  24827621.49525    206995.36825     -1062.76925        35.38525                                                                
G17  22396551.99026    188656.95126      -973.63326        37.57926                                                                
G19  20451518.60826    -72195.73826       299.32426        40.50626                                                                
G24  21035040.04527   -491325.59427      2360.18827        43.53827  21034867.96426   -372843.53226      1763.10626        36.07526
R22  19213130.52726   -463120.09726      2200.40726        39.82626
R13  22422679.20225  -1036481.31425      5149.33125        35.49925
R12  19658017.13827   -638554.30427      3116.33427        43.46827
R11  21001752.28926     95456.48726      -545.85826        40.73726
R23  21835115.96427  -1147374.02827      5657.14227        42.89127
R21  21077613.87227    293403.16927     -1531.68727        41.80027
E02  26218849.46824     15357.31024      -107.35124        26.47424  26218681.58423     11262.55823       -80.95623        21.95523
E07  27024970.40225    151300.23425      -795.75725        33.28225  27024797.72225    113625.16325      -592.95625        33.85825
E15  25462115.14425   -471435.44925      4464.02525        34.79825  25461952.35725   -351956.05425      3338.17825        31.61825
E18  20429088.13725   -925205.78325      4527.98525        35.03425  20428917.55524   -707474.34724      3382.86224        28.66424
E27  25380672.32626   -357220.64226      3391.58426        38.75026  25380512.53726   -266732.64326      2533.57826        37.72826
E30  23779205.89826   -323013.47226      1576.44426        37.91426                                                                
E34  24168886.32825   -438748.76325      2135.30825        35.24325  24168716.04623   -331014.89823      1595.68923        22.23223
E36  26752679.40525     75723.21125      -437.58025        31.68125  26752513.92024     56940.72224      -325.73724        27.67324
> 2023 11 29 03 23 36.0000871  0 24                      
G06  21117099.23627   -737502.78027      3618.71827        46.16327  21116932.85224   -553464.08124      2702.69524        28.65524
G11  23151319.37524  -1023461.03224      5086.69324        28.51524  23151144.29624   -768135.17824      3799.49624        26.74824
G12  23247744.92126   -887243.14626      4367.44126        39.78626                                                                
G13  24546274.06825    309934.30225     -1629.91725        30.99325                                                                
G14  23514098.52822    161352.09622      -874.44322        16.57922                                                                
G15  24828126.04625    208056.17925     -1063.37825        32.14625                                                                
G17  22397028.36026    189631.50226      -975.27426        40.63226                                                                
G19  20451754.84526    -72491.83926       294.82826        38.80626                                                                
G22  22459851.36824      3837.88424       -57.21024        26.68424                                                                
G24  21034884.75227   -493686.21627      2361.31127        45.95127  21034718.66726   -374606.59326      1763.16426        40.74426
R22  19213024.40026   -465318.70426      2198.19526        38.30326
R13  22422012.16426  -1041631.45126      5150.06926        35.97526
R12  19657739.53027   -641670.50727      3116.00427        44.89627
R11  21002166.90226     96003.07126      -546.60626        41.47926
R23  21834357.48927  -1153032.66527      5659.72627        43.53227
R21  21078196.66826    294935.34826     -1533.50926        38.58826
E02  26219192.13124     15464.75324      -108.07724        27.53024  26218996.66623     11336.38123       -80.42723        20.98523
E07  27025422.48925    152095.67125      -795.96125        32.73825  27025248.61025    114219.62825      -593.81125        34.02725
E15  25461566.82425   -475896.57825      4465.01225        30.96525  25461401.63825   -355291.88025      3338.24425        31.84925
E27  25380329.66327   -360611.86827      3391.75427        41.58127  25380164.77826   -269265.57326      2533.28926        40.07726
E30  23779209.19626   -324589.75726      1576.85726        37.00726                                                                
E34  24168774.80525   -440884.51325      2134.96325        32.70225  24168610.51924   -332614.38324      1594.38824        23.97124
E36  26753064.93924     76160.47924      -437.86924        29.48024  26752895.85624     57266.54624      -325.64624        26.97024
E18                                                                  20428356.04324   -710853.22824      3381.37124        24.61424
> 2023 11 29 03 23 37.0000882  0 24                      
G06  21116739.78527   -741120.21927      3617.60727        45.49127  21116574.00025   -556165.64225      2701.31125        31.44525
G11  23150679.91824  -1028548.77824      5088.21124        27.25824  23150506.93824   -771934.34824      3798.51624        25.71224
G12  23247246.66626   -891611.34526      4368.74326        39.48426                                                                
G13  24546914.12525    311563.00525     -1628.79625        30.46625                                                                
G14  23514594.98522    162228.29222      -874.97522        15.27222                                                                
G15  24828659.37724    209116.75224     -1062.05024        27.32124                                                                
G17  22397545.50226    190605.99126      -974.52226        39.43526                                                                
G19  20452032.75226    -72785.99726       291.10426        39.32726                                                                
G22  22460212.31924      3882.14524       -47.59324        23.85924                                                                
G24  21034766.33427   -496046.18727      2360.21127        44.56927  21034598.45126   -376369.03926      1762.95126        37.89426
R22  19212913.17726   -467516.44126      2197.66326        37.40926
R13  22421377.80326  -1046781.36826      5149.88626        35.77126
R12  19657490.10327   -644786.97127      3116.73427        44.50127
R11  21002591.10926     96550.56026      -548.26726        38.99726
R23  21833625.39627  -1158691.09627      5659.11127        43.34227
R21  21078808.84426    296466.93626     -1531.31026        40.82026
E02  26219529.09823     15572.48923      -108.46223        22.68223  26219347.42324     11402.64024       -79.72724        23.69524
E07  27025903.35625    152891.55025      -796.05425        31.62625  27025730.07625    114813.77425      -594.02425        35.02925
E15  25461045.48524   -480356.39224      4462.99224        29.03324  25460880.29925   -358629.72925      3337.74425        29.73425
E18  20427993.29525   -934263.04825      4528.91325        33.12325  20427824.21224   -714225.43124      3382.19624        28.66724
E27  25380015.48126   -364003.89326      3392.01626        39.97326  25379849.09626   -271798.50726      2532.87226        39.56526
E30  23779228.98226   -326166.66826      1576.79626        38.66426                                                                
E34  24168698.05825   -443020.61025      2134.87425        32.96925  24168533.17324   -334209.53824      1594.57524        24.69224
E36  26753476.85324     76597.42324      -437.88024        29.21024  26753308.07024     57592.51724      -326.02424        26.49324
> 2023 11 29 03 23 38.0000892  0 24                      
G06  21116356.35127   -744738.94627      3619.38427        44.89127  21116184.57026   -558867.65526      2702.30526        36.48626
G11  23150015.27825  -1033638.08625      5089.96625        31.25925  23149836.60224   -775734.58024      3800.63424        28.82124
G12  23246705.24127   -895978.79227      4368.01427        42.27227                                                                
G13  24547520.30525    313191.35725     -1627.39525        31.76125                                                                
G14  23515056.06524    163104.51924      -874.71424        25.70924                                                                
G15  24829157.33226    210177.11326     -1061.35126        37.22726                                                                
G17  22398030.56626    191583.73426      -972.66026        36.52026                                                                
G19  20452272.28726    -73081.99626       296.11426        40.07726                                                                
G22  22460521.10524      3926.27824       -48.02324        23.99724                                                                
G24  21034615.83827   -498405.36327      2359.46027        43.18427  21034449.75326   -378130.66726      1762.49026        37.76426
R22  19212850.52026   -469715.46526      2198.84426        35.74226
R13  22420713.46325  -1051930.17025      5148.26325        35.13625
R12  19657201.70227   -647904.00027      3118.88527        41.90527
R11  21002988.93326     97097.37526      -546.69226        39.50326
R23  21832866.62127  -1164350.04727      5659.18627        42.44027
R21  21079399.43526    297998.14226     -1529.88526        38.94726
E02  26219847.77724     15678.89824      -107.91724        26.34724  26219668.20123     11482.25623       -80.83723        23.31923
E07  27026340.45426    153687.68326      -795.82326        36.05426  27026180.96425    115407.59625      -593.45225        34.03725
E15  25460493.56725   -484813.83725      4462.99225        34.17425  25460328.08225   -361968.89025      3339.36125        33.21325
E18  20427429.68526   -938791.92526      4528.82526        35.92026  20427260.60225   -717596.77625      3381.65125        30.90525
E27  25379670.12027   -367395.41727      3391.62027        42.31027  25379502.23626   -274331.08826      2532.22726        37.93326
E30  23779234.97826   -327743.68526      1577.23526        38.16726                                                                
E34  24168591.63225   -445157.14225      2135.25425        32.02425  24168427.64623   -335799.68723      1594.86023        21.62423
E36  26753862.98625     77034.72425      -437.68925        32.28625  26753692.40424     57919.56124      -327.42524        27.88224
> 2023 11 29 03 23 39.0000902  0 24                      
G06  21115960.02526   -748353.37226      3612.08026        40.33226  21115797.23825   -561566.72825      2697.89725        34.06625
G11  23149315.56225  -1038728.21625      5087.83025        31.39325  23149168.36424   -779533.34824      3798.05424        27.98824
G12  23246179.10526   -900347.49126      4369.13926        36.73826                                                                
G13  24548119.59024    314819.22424     -1627.58424        29.33924                                                                
G14  23515518.94524    163982.92624      -880.37924        28.70524                                                                
G15  24829649.89126    211239.15826     -1061.47026        37.51726                                                                
G17  22398516.82926    192557.60926      -973.54026        35.87326                                                                
G19  20452517.21725    -73378.07325       300.09325        35.17525                                                                
G22  22460826.89324      3973.02824       -57.04124        27.32324                                                                
G24  21034471.33927   -500763.38727      2358.53827        43.11327  21034299.25826   -379890.15126      1761.50126        38.98626
R22  19212730.60327   -471912.75627      2195.64927        44.58227
R13  22420043.72725  -1057079.46825      5148.97425        31.09125
R12  19656935.18726   -651018.41026      3111.77326        37.54326
R11  21003417.33726     97640.73026      -546.20426        35.94626
R23  21832118.93926  -1170006.65326      5656.51826        38.78426
R21  21080001.41926    299530.96626     -1533.08926        38.66926
E02  26220158.36226     15789.59526      -107.77826        37.27226  26219988.38024     11562.95624       -80.36124        24.68624
E07  27026800.63525    154482.41825      -795.08025        34.07925  27026631.55226    116002.16226      -594.79226        36.22326
E15  25459932.95526   -489273.40326      4471.54226        36.82826  25459776.46425   -365306.29825      3336.68125        32.08325
E27  25379320.26226   -370786.47926      3391.11026        36.49826                                                                
E30  23779236.77725   -329316.54325      1573.98625        35.44425                                                                
E34  24168483.70726   -447291.84226      2134.54426        40.15726  24168320.32024   -337384.68124      1593.83124        28.26224
E36  26754247.02024     77476.18924      -437.73024        27.24924  26754076.13825     58246.71825      -326.45625        31.65625
E18                                                                  20426697.59225   -720976.38825      3380.06725        30.49225
> 2023 11 29 03 23 40.0000913  0 24                      
G06  21115604.77127   -751968.28627      3615.90727        46.59727  21115438.38625   -564266.02625      2699.99725        32.13825
G11  23148700.08825  -1043815.19725      5085.11825        33.77125  23148530.10625   -783331.33725      3798.90925        32.88325
G12  23245731.51526   -904715.14026      4367.93526        37.86626                                                                
G13  24548765.04425    316447.28225     -1626.92225        30.36125                                                                
G14  23516025.89424    164862.51724      -882.31224        25.02024                                                                
G15  24830170.63125    212300.52125     -1060.49025        34.15425                                                                
G17  22399029.77425    193532.92925      -974.58425        31.40725                                                                
G19  20452788.82926    -73682.44626       296.17826        36.33726                                                                
G22  22461168.35723      4020.60723       -51.77723        21.99223                                                                
G24  21034350.82227   -503120.79427      2357.90627        43.70627  21034180.84026   -381650.38526      1760.47826        36.02326
R22  19212651.15826   -474106.69926      2192.77526        37.60526
R13  22419474.42125  -1062228.39225      5148.30725        30.08625
R12  19656688.45825   -654131.54425      3111.01825        34.38025
R11  21003826.85327     98187.17327      -548.97227        44.31027
R23  21831380.55027  -1175662.69427      5655.49627        42.27827
R21  21080639.07726    301065.74626     -1535.55926        35.75526
E02  26220495.92825     15898.11925      -108.08325        34.88725  26220340.33624     11643.90224       -80.66124        26.27524
E07  27027283.60126    155278.45326      -795.59426        35.94526  27027110.02126    116597.37926      -594.43526        36.60026
E15  25459427.50526   -493742.95926      4469.64726        40.09626  25459255.42425   -368642.87025      3337.35625        34.06625
E18  20426336.94125   -947843.50025      4527.92425        30.57425  20426166.65925   -724355.97425      3379.98525        31.71925
E27  25379004.28125   -374177.54625      3390.92325        33.02325  25378839.99525   -279378.11225      2533.24225        32.30725
E30  23779265.55725   -330887.02225      1572.30425        33.64525                                                                
E34  24168408.75926   -449425.61726      2133.84726        37.14226  24168245.67224   -338964.71724      1594.04724        25.78524
E36  26754733.88323     77922.71823      -437.31023        22.76323  26754489.55225     58574.44425      -327.39325        30.06825
> 2023 11 29 03 23 41.0000923  0 24                      
G06  21115219.53827   -755583.19227      3615.65227        46.55627  21115049.85525   -566966.77225      2699.87625        30.70425
G11  23148028.85325  -1048900.60225      5083.63125        34.22225  23147861.86925   -787129.85625      3798.50525        32.70825
G12  23245162.80926   -909081.97026      4365.67026        37.74326                                                                
G13  24549373.32225    318074.65225     -1626.18125        30.59225                                                                
G14  23516488.77424    165741.89824      -882.41824        26.49224                                                                
G15  24830671.28425    213361.93725     -1061.15625        33.63225                                                                
G17  22399514.83924    194507.48224      -973.25424        27.17924                                                                
G19  20453032.86026    -73981.98026       296.66126        37.90126                                                                
G22  22461477.14323      4073.96823       -52.14523        21.95723                                                                
G24  21034204.52327   -505478.20927      2357.97827        44.67927  21034032.14325   -383410.23225      1759.27025        34.13925
R22  19212545.63125   -476300.72125      2197.56325        33.08825
R13  22418783.39925  -1067377.69925      5149.29925        31.23225
R12  19656397.95925   -657245.06825      3112.70825        33.94125
R11  21004234.27127     98736.13627      -548.73327        45.74227
R23  21830622.37527  -1181318.75527      5655.92427        42.47327
R21  21081279.73426    302601.40226     -1537.59726        36.71026
E02  26220820.30425     16005.92525      -108.27325        35.18225  26220661.41424     11724.53724       -79.14724        27.39524
E07  27027736.28825    156075.22725      -796.41925        34.68925  27027563.00725    117191.67025      -594.21525        35.25125
E15  25458863.29626   -498211.25426      4468.69026        39.33626  25458704.40625   -371980.35025      3337.22025        33.18025
E18  20425778.12825   -952363.62225      4526.39225        33.17825  20425604.84824   -727735.74524      3379.88224        29.41824
E27  25378658.02125   -377566.49725      3390.91525        30.88525  25378493.73425   -281906.57125      2533.34425        32.28725
E30  23779264.35825   -332461.17825      1571.71425        33.19125  23779103.36923   -255300.04823      1177.33723        20.70223
E34  24168301.73325   -451559.34025      2133.81125        34.47325  24168139.54524   -340557.78124      1592.88024        23.66624
E36                                                                  26754871.78825     58902.19325      -327.05825        31.87825
> 2023 11 29 03 23 42.0000934  0 24                      
G06  21114861.88527   -759197.75627      3615.26227        46.90027  21114691.00425   -569665.88325      2699.17625        29.73325
G11  23147387.89725  -1053986.23325      5084.84325        33.89725  23147223.61125   -790928.23825      3798.94225        32.48325
G12  23244660.35626   -913449.19026      4366.96926        37.49526                                                                
G13  24550015.17825    319702.34625     -1627.18925        30.95725                                                                
G14  23516988.22823    166621.15823      -881.50223        22.86623                                                                
G15  24831199.81825    214423.46125     -1061.09825        32.12225                                                                
G17  22400031.38124    195482.03824      -975.78024        27.75824                                                                
G19  20453308.06926    -74276.17426       294.39726        37.51826                                                                
G22  22461817.10823      4128.92623       -52.13723        20.29123                                                                
G24  21034083.10727   -507834.96527      2357.68627        44.08927  21033913.12525   -385170.64325      1760.36525        32.43325
R22  19212449.09825   -478495.13725      2196.14025        31.24125
R13  22418142.14325  -1072527.41625      5149.50825        32.06425
R12  19656090.97125   -660359.06625      3114.57625        33.30225
R11  21004667.47127     99285.48727      -548.47127        45.29527
R23  21829896.27727  -1186974.95527      5656.60727        41.88927
R21  21081877.52026    304136.42626     -1535.75826        36.74026
E02  26221172.26026     16113.05426      -107.59326        35.65326  26221012.17124     11807.94724       -79.24224        25.09424
E07  27028216.85525    156871.71525      -796.96025        34.45925  27028039.97725    117786.64725      -594.74525        34.16625
E15  25458349.15226   -502680.20626      4468.65626        39.85326  25458183.06725   -375317.53725      3337.15725        32.76425
E18  20425247.79525   -956882.54925      4524.73825        33.41425  20425072.11724   -731114.96724      3379.77424        29.00424
E27  25378341.44025   -380955.99025      3391.03725        32.38125  25378177.45325   -284438.90125      2532.75725        31.90725
E30  23779294.33725   -334035.25025      1572.17725        32.43725  23779134.84723   -256474.75323      1175.40323        20.76323
E34  24168224.68625   -453693.08425      2134.01825        35.21425  24168061.89924   -342151.30124      1594.23624        25.46924
E36                                                                  26755285.50125     59229.80625      -326.71425        31.28525
> 2023 11 29 03 23 43.0000944  0 24                      
G06  21114474.55327   -762812.02727      3615.11727        46.36727  21114303.37224   -572365.00324      2699.79224        28.65724
G11  23146715.76225  -1059072.60525      5086.91025        34.03425  23146554.77425   -794726.74425      3798.96625        32.39425
G12  23244120.43026   -917816.89226      4367.96626        38.11526                                                                
G13  24550625.85525    321330.63725     -1628.69125        30.52725                                                                
G14  23517455.30424    167500.30724      -881.42224        24.62524                                                                
G15  24831707.06725    215485.00725     -1061.37825        32.61725                                                                
G17  22400519.44324    196458.06724      -977.58324        27.28024                                                                
G19  20453543.70626    -74570.17526       293.84726        36.84126                                                                
G22  22462127.99222      4186.21322       -52.08422        16.16822                                                                
G24  21033939.80627   -510191.25927      2357.28727        44.29527  21033764.12825   -386930.44725      1760.30325        32.01125
R22  19212245.53925   -480688.37325      2193.85425        29.86125
R13  22417458.31725  -1077677.46625      5150.04625        31.67125
R12  19655843.34325   -663473.52225      3116.02625        34.06425
R11  21005064.69627     99835.12927      -548.62927        45.02027
R23  21829135.40427  -1192631.15927      5656.53727        42.46127
R21  21082462.71526    305670.37326     -1532.85326        37.04726
E02  26221492.43925     16220.85725      -107.20625        35.29125  26221333.24924     11897.52024       -80.33924        25.73724
E07  27028670.74125    157668.61025      -797.29325        33.70625  27028493.56325    118381.06125      -593.99225        33.46925
E15  25457796.03526   -507148.67726      4468.79126        39.82226  25457632.04825   -378654.73425      3337.62325        32.86825
E18  20424686.88325   -961400.67425      4523.35925        33.40025  20424510.90524   -734493.71324      3378.78924        27.20324
E27  25377995.77925   -384347.48725      3391.18225        32.04025  25377831.19325   -286972.05725      2533.65325        31.78425
E30  23779294.33725   -335610.28425      1573.84825        32.87425                                                                
E34  24168117.66025   -455826.89925      2134.04325        34.06125  24167956.67224   -343743.49324      1591.64024        25.40024
E36                                                                  26755667.43725     59557.37325      -327.03925        31.00225
> 2023 11 29 03 23 44.0000955  0 24                      
G06  21114114.20327   -766426.21327      3614.84927        46.32727  21113945.12025   -575065.22325      2699.79125        31.03525
G11  23146079.30325  -1064160.10625      5088.18425        34.55625  23145916.51525   -798525.94325      3799.10025        32.81625
G12  23243617.67826   -922184.98126      4368.09326        38.21726                                                                
G13  24551261.41525    322958.43425     -1627.88725        31.40925                                                                
G14  23517955.05923    168376.49123      -875.29623        21.89323                                                                
G15  24832231.70425    216546.40725     -1061.73325        31.98825                                                                
G17  22401033.28724    197432.03624      -976.83624        25.25724                                                                
G19  20453816.81726    -74864.69726       295.03026        35.91526                                                                
G22  22462466.15822      4238.06022       -52.12322        14.28522                                                                
G24  21033815.69227   -512547.55027      2356.87527        44.02827  21033644.21125   -388691.25825      1759.72125        32.83925
R22  19212232.34824   -482881.63724      2191.10724        27.80624
R13  22416826.35425  -1082828.19525      5150.62225        32.67125
R12  19655602.31025   -666588.53225      3116.34425        34.90425
R11  21005502.99327    100384.63027      -548.84027        44.63427
R23  21828406.90827  -1198287.04927      5655.11327        42.19127
R21  21083076.99026    307203.85426     -1533.35726        37.52626
E02  26221842.29625     16328.34725      -106.97425        34.99925  26221682.20724     11988.83924       -79.66124        24.84224
E07  27029151.00825    158464.80325      -796.93825        33.69525  27028974.43025    118974.83325      -593.95825        32.93225
E15  25457278.29326   -511617.70526      4469.46226        39.73526  25457111.30925   -381992.79925      3337.96525        33.64525
E18  20424154.15225   -965920.99225      4523.08425        33.95725  20423979.07424   -737875.80824      3379.13324        27.82624
E27  25377681.89625   -387739.51025      3391.77225        32.76725  25377514.91225   -289505.92925      2533.96225        32.17625
E30  23779322.21825   -337185.92625      1575.63525        31.68725                                                                
E34  24168039.71425   -457960.57925      2133.87225        33.29025  24167880.22524   -345336.76224      1593.48724        24.79624
E36                                                                  26756081.15025     59884.37725      -327.01225        31.64225
> 2023 11 29 03 23 45.0000965  0 23                      
G06  21113724.47327   -770039.64027      3614.18327        46.09027  21113556.58925   -577763.98425      2698.95225        31.95425
G11  23145407.46825  -1069247.19525      5087.17325        34.34925  23145247.67825   -802324.13425      3799.04325        32.83725
G12  23243081.35026   -926553.36126      4369.12526        38.35626                                                                
G13  24551872.69225    324584.19625     -1627.51625        31.53425                                                                
G14  23518422.73523    169251.88523      -875.59023        18.03823                                                                
G15  24832733.85625    217608.16425     -1060.76725        31.35425                                                                
G17  22401512.35624    198403.44224      -973.55524        25.78024                                                                
G19  20454059.94925    -75158.98125       295.71825        34.91225                                                                
G24  21033666.99527   -514902.90027      2356.13727        44.18227  21033495.51425   -390447.40525      1759.39325        33.88725
R22  19212146.60824   -485073.41024      2188.23424        26.27724
R13  22416160.51525  -1087978.51225      5150.94425        32.72225
R12  19655328.29925   -669702.59325      3114.65125        35.22125
R11  21005903.21627    100934.64627      -549.32727        44.54927
R23  21827646.03527  -1203942.43427      5656.07727        41.90227
R21  21083650.79226    308739.19126     -1535.06126        37.07226
E02  26222160.37625     16436.25825      -107.82125        34.84525  26222001.18624     12069.28724       -81.08224        25.96924
E07  27029602.49625    159261.00125      -796.45125        34.05325  27029425.01825    119569.54825      -594.02425        33.47425
E15  25456725.47626   -516086.05526      4468.64326        39.94026  25456560.89025   -385330.19125      3337.33625        34.27325
E18  20423593.24125   -970444.98425      4523.15325        34.38225  20423416.06324   -741252.16024      3377.94724        28.64424
E27  25377337.73525   -391131.56025      3392.24625        33.71725  25377168.65225   -292039.42525      2533.44525        32.81825
E30  23779322.51825   -338763.03825      1577.21825        31.16325                                                                
E34  24167933.88825   -460093.77425      2133.32525        33.44925  24167773.49924   -346929.56524      1592.69724        24.51624
E36  26756631.86924     80113.33924      -438.85624        25.52524  26756464.58525     60211.85725      -327.77325        31.77025
> 2023 11 29 03 23 46.0000976  0 24                      
G06  21113368.91927   -773653.52327      3614.64027        46.27827  21113198.03725   -580462.64825      2698.76225        32.56325
G11  23144768.01125  -1074334.08825      5086.60625        34.06325  23144609.42025   -806124.01325      3799.21425        32.34225
G12  23242580.99626   -930921.94126      4368.22326        38.17526                                                                
G13  24552506.45325    326212.00425     -1626.14925        31.41825                                                                
G14  23518917.09222    170127.49322      -874.74922        17.10422                                                                
G15  24833265.38825    218669.31025     -1062.02025        31.97425                                                                
G17  22402023.20224    199373.64624      -972.05724        26.77624                                                                
G19  20454333.36025    -75452.82925       293.90225        34.27825                                                                
G22  22463120.90523      4342.26723       -52.65623        18.84223                                                                
G24  21033547.67827   -517258.67427      2356.49127        44.24327  21033376.79625   -392203.53225      1759.21425        34.00225
R22  19212054.57124   -487263.72724      2189.08524        27.70324
R13  22415475.48925  -1093129.70825      5149.89325        31.84025
R12  19655119.64426   -672816.19826      3113.17226        35.96926
R11  21006333.11827    101484.65127      -548.76827        44.30227
R23  21826922.33627  -1209598.39627      5656.50327        42.18427
R21  21084239.58526    310274.35426     -1535.87126        37.29926
E02  26222511.43325     16543.51325      -106.55025        35.39625  26222350.74424     12148.76824       -76.66824        26.41224
E07  27030083.66225    160056.21925      -795.84125        33.93325  27029905.58625    120162.42625      -593.27325        33.66225
E15  25456206.23526   -520555.55826      4469.20326        39.72326  25456039.55125   -388668.16925      3338.20625        34.22425
E18  20423059.91025   -974968.70825      4523.42525        34.08725  20422884.23124   -744622.54124      3379.28424        28.07324
E27  25377022.35325   -394524.53325      3392.81925        33.29725  25376852.67025   -294573.24325      2533.91025        33.04625
E30  23779353.99625   -340340.09425      1578.03025        31.63925                                                                
E34  24167856.24125   -462226.37525      2132.63425        33.80325  24167694.95324   -348522.97324      1593.37924        24.77924
E36                                                                  26756877.09925     60538.94925      -326.96225        31.98925
> 2023 11 29 03 23 47.0000986  0 23                      
G06  21112977.39027   -777266.50127      3613.82827        46.05727  21112811.30525   -583160.56525      2698.41725        32.28725
G11  23144100.67325  -1079421.27725      5085.75325        33.57925  23143940.58325   -809922.68625      3799.27025        32.22325
G12  23242047.36526   -935290.12626      4367.81926        38.72726                                                                
G13  24553114.43325    327838.30225     -1625.72025        31.82625                                                                
G15  24833768.74025    219730.19325     -1061.87325        31.86125                                                                
G17  22402509.46524    200342.63524      -972.57324        27.47324                                                                
G19  20454576.19225    -75745.60725       291.85025        33.04825                                                                
G22  22463433.58923      4396.85423       -52.10823        20.64823                                                                
G24  21033403.77827   -519613.55227      2355.81827        44.22827  21033228.09925   -393962.16925      1758.80325        33.84125
R22  19211945.44724   -489456.91724      2190.96024        27.91324
R13  22414831.23525  -1098280.44725      5150.20825        32.35925
R12  19654810.85826   -675929.44126      3112.91426        36.11626
R11  21006734.54027    102034.98827      -549.50627        44.23727
R23  21826156.96626  -1215254.39126      5656.95926        41.48526
R21  21084815.78626    311810.37226     -1536.84526        36.71926
E02  26222830.11226     16650.47626      -106.57826        35.53826  26222670.62324     12229.93824       -80.00824        24.85624
E07  27030532.75225    160851.90125      -795.34925        34.64525  27030356.17425    120756.55925      -593.57725        32.60825
E15  25455653.41826   -525024.56026      4469.54926        40.04726  25455489.13225   -392005.44025      3337.84525        34.07925
E18  20422496.60025   -979492.50425      4523.84525        33.72725  20422322.42024   -747991.19024      3378.54224        28.68424
E27  25376677.29225   -397917.19825      3393.19425        34.31625  25376506.41025   -297106.81825      2533.97925        33.02925
E30  23779353.69625   -341917.25425      1578.22125        31.38425                                                                
E34  24167749.21525   -464359.02325      2131.90425        34.50225  24167589.72624   -350115.76224      1592.83824        25.54624
E36                                                                  26757259.93425     60866.97525      -327.57225        31.75825
> 2023 11 29 03 23 48.0000997  0 24                      
G06  21112621.23627   -780879.69027      3613.63927        46.12727  21112452.75325   -585858.93525      2698.34825        32.61625
G11  23143462.41425  -1084507.68825      5085.89125        32.43625  23143301.72625   -813722.04025      3799.46225        31.65225
G12  23241550.90926   -939657.63926      4366.11026        37.85026                                                                
G13  24553753.59025    329463.55125     -1624.98625        31.62125                                                                
G14  23519875.82924    171882.97624      -876.88624        23.87224                                                                
G15  24834299.67225    220790.99925     -1061.56925        31.91925                                                                
G17  22403025.40824    201317.30324      -976.03924        28.53224                                                                
G19  20454849.90225    -76038.19525       291.58625        32.37025                                                                
G22  22463773.25323      4451.16923       -53.37223        23.41023                                                                
G24  21033284.16027   -521968.26227      2355.22227        44.55727  21033108.78225   -395720.81125      1758.36125        33.10425
R22  19211868.70025   -491651.64125      2191.01425        30.06925
R13  22414190.87925  -1103432.07325      5152.26425        31.47525
R12  19654564.72825   -679042.33725      3113.14225        35.06625
R11  21007172.23727    102585.34127      -549.73827        44.21327
R23  21825435.36626  -1220909.56626      5654.77526        41.03926
R21  21085385.39126    313345.83126     -1535.14426        36.67426
E02  26223183.56826     16757.26226      -106.31526        36.52726  26223018.98224     12309.39224       -79.05524        26.11624
E07  27031012.41925    161647.35325      -795.05025        35.30325  27030837.04125    121350.16625      -593.52625        33.97725
E15  25455133.27826   -529493.54926      4469.29926        39.78126  25454967.79225   -395343.29625      3337.92125        34.00825
E18  20421964.16825   -984016.24125      4524.07925        33.70825  20421791.78824   -751369.82124      3378.73524        28.75924
E27  25376360.41125   -401310.90325      3393.35025        33.91125  25376190.12925   -299641.08825      2534.31525        33.30625
E30  23779384.87425   -343494.44625      1577.82625        31.57625                                                                
E34  24167671.26926   -466490.92226      2131.50126        35.64026  24167511.78024   -351708.25324      1592.03824        26.99224
E36                                                                  26757672.74925     61194.22325      -326.77225        32.11925
> 2023 11 29 03 23 49.0001007  0 24                      
G06  21112231.20627   -784492.06927      3612.63327        45.63227  21112064.52225   -588556.06025      2697.66625        33.29425
G11  23142795.67625  -1089594.09625      5086.27125        33.09425  23142633.18825   -817520.20425      3798.71125        32.48425
G12  23241007.08626   -944025.65126      4366.67026        37.27626                                                                
G13  24554359.47125    331088.24225     -1624.83825        30.29225                                                                
G14  23520344.40423    172762.43223      -877.72123        22.65223                                                                
G15  24834803.92325    221851.63425     -1060.79525        34.55525                                                                
G17  22403513.47024    202295.68924      -976.81224        26.57724                                                                
G19  20455093.33425    -76330.88725       292.13825        33.53625                                                                
G22  22464083.83823      4504.89123       -54.61023        20.66423                                                                
G24  21033136.96227   -524321.97327      2354.34727        45.01027  21032960.38525   -397478.47725      1758.19125        34.63325
R22  19211758.67625   -493841.31325      2190.78025        32.93625
R13  22413525.93925  -1108583.55525      5152.86025        30.34525
R12  19654270.93125   -682155.23825      3113.03125        35.26925
R11  21007575.45827    103136.23427      -550.71227        43.92727
R23  21824673.89327  -1226563.95627      5653.48527        42.53627
R21  21085990.07326    314881.49626     -1535.18726        35.98526
E02  26223498.94925     16863.51425      -106.44025        35.48125  26223337.96124     12389.09524       -79.03524        26.10324
E07  27031463.30725    162442.41625      -794.92525        34.24525  27031288.22925    121944.61725      -594.07225        34.41625
E15  25454582.55926   -533962.72826      4468.71426        39.80226  25454417.07425   -398680.23125      3337.33625        34.43225
E18  20421402.95725   -988540.08525      4524.08125        33.22125  20421230.57624   -754747.30224      3377.77924        27.59924
E27  25376015.35025   -404704.53725      3393.50925        32.30425  25375844.46825   -302174.66725      2533.95825        34.04225
E30  23779385.17425   -345071.01825      1576.91425        32.40525                                                                
E34  24167574.73626   -468622.06126      2131.10026        36.22826  24167406.25324   -353299.91324      1592.09524        26.89124
E36                                                                  26758056.78325     61524.65725      -328.55525        30.67225
> 2023 11 29 03 23 50.0001018  0 24                      
G06  21111869.65727   -788103.57527      3612.06527        45.33927  21111706.86925   -591252.94225      2697.04525        33.76625
G11  23142158.31725  -1094681.10025      5087.02025        34.19625  23141994.93025   -821318.62625      3798.33625        33.39625
G12  23240495.64026   -948394.00226      4368.18826        37.99126                                                                
G13  24554999.22825    332714.30325     -1625.69425        29.92325                                                                
G14  23520844.15823    173639.72023      -877.73223        23.18323                                                                
G15  24835338.75326    222912.28226     -1060.57126        35.84926                                                                
G17  22404035.40923    203276.84923      -976.71123        23.06523                                                                
G19  20455366.74425    -76623.03825       292.18825        35.02825                                                                
G22  22464428.30023      4557.47223       -53.93223        18.48023                                                                
G24  21033019.74327   -526674.96627      2353.50927        45.08827  21032842.26625   -399235.62525      1757.39425        34.99825
R22  19211677.13325   -496029.40425      2187.88325        33.58325
R13  22412892.77725  -1113738.41925      5152.30125        29.58525
R12  19654011.01125   -685267.64625      3112.93425        35.08725
R11  21008001.76327    103687.64127      -551.26227        44.31927
R23  21823955.89027  -1232218.43627      5654.55527        43.41727
R21  21086613.64125    316417.07525     -1533.88625        35.19025
E02  26223847.00825     16970.44625      -106.81725        34.80625  26223689.01824     12469.06824       -79.55024        27.03324
E07  27031945.07425    163238.05525      -795.11825        32.87625  27031769.39525    122538.49225      -593.56725        35.23525
E15  25454061.22026   -538431.52926      4468.67226        39.77326  25453896.03425   -402017.32225      3337.08825        34.87725
E18  20420874.72325   -993062.77725      4523.47025        33.15525  20420699.64424   -758124.95224      3378.05824        27.76824
E27  25375702.06725   -408097.42325      3393.29425        31.69725  25375528.18725   -304708.32025      2533.82625        34.00725
E30  23779413.95425   -346646.77325      1575.83125        33.06525                                                                
E34  24167493.49226   -470753.15526      2130.80726        35.88326  24167330.70524   -354891.18524      1591.64624        26.58624
E36  26758632.08424     82305.05624      -440.05124        28.21824  26758469.29725     61857.54925      -328.14525        29.92225
> 2023 11 29 03 23 51.0001028  0 24                      
G06  21111489.22027   -791714.18227      3611.67427        45.66027  21111319.23825   -593949.56925      2696.47025        33.91025
G11  23141485.28325  -1099767.54625      5086.35225        33.21625  23141326.39325   -825117.06825      3798.11725        32.71725
G12  23239969.80426   -952762.37526      4369.04126        38.17526                                                                
G13  24555605.10825    334340.61025     -1626.72425        30.24825                                                                
G14  23521308.53723    174519.30423      -879.35923        23.07423                                                                
G15  24835842.40426    223972.87126     -1060.44426        35.97626                                                                
G17  22404519.87424    204253.29524      -976.69024        24.11424                                                                
G19  20455610.77525    -76914.85525       291.42125        34.68525                                                                
G22  22464735.58723      4606.87823       -55.09023        21.04223                                                                
G24  21032871.04627   -529027.17027      2353.08327        44.74327  21032694.16925   -400992.60125      1756.82925        35.16825
R22  19211569.80725   -498216.03225      2186.08225        35.13325
R13  22412229.33625  -1118892.47325      5151.87825        30.73825
R12  19653717.21525   -688379.42225      3111.67525        34.19225
R11  21008405.58327    104239.91227      -551.44227        44.21827
R23  21823191.41927  -1237872.96827      5655.36127        43.26627
R21  21087204.23225    317954.85025     -1538.57425        34.88425
E02  26224170.48526     17077.80526      -107.14326        35.55926  26224008.89624     12549.55924       -80.24624        25.99924
E07  27032396.86125    164034.09225      -795.57625        32.84225  27032219.98425    123132.48025      -594.04825        34.71925
E15  25453509.60226   -542899.70826      4468.28226        39.80226  25453345.31625   -405354.48225      3337.05525        34.69225
E18  20420312.31225   -997585.18525      4522.48125        32.73725  20420138.73224   -761501.70924      3376.72224        27.38724
E27  25375356.10725   -411490.01225      3392.95625        31.28425  25375181.92725   -307242.39025      2534.24625        34.12225
E30  23779412.15625   -348222.29325      1575.06725        32.32025                                                                
E34  24167387.96526   -472883.35326      2130.26926        36.61326  24167226.07824   -356482.38624      1591.22924        26.10224
E36  26759016.11924     82745.38924      -440.27624        28.29424  26758853.03224     62189.48524      -328.53324        29.22824
> 2023 11 29 03 23 52.0001039  0 24                      
G06  21111125.57227   -795325.00127      3611.23627        45.23027  21110961.28625   -596645.36425      2696.31725        34.54725
G11  23140845.22625  -1104853.84725      5086.90825        33.43525  23140688.13525   -828914.87925      3798.45425        33.25825
G12  23239467.95126   -957131.09226      4369.12326        38.09026                                                                
G13  24556243.06725    335966.79525     -1626.15225        30.30025                                                                
G14  23521807.09223    175402.24023      -878.74923        22.25823                                                                
G15  24836373.33725    225033.47525     -1060.34525        35.26625                                                                
G17  22405033.41824    205228.11724      -974.92024        25.57924                                                                
G19  20455881.78825    -77206.39225       291.24425        34.09525                                                                
G22  22465080.34823      4662.42023       -54.46923        22.68223                                                                
G24  21032749.03127   -531379.41927      2352.66527        44.40727  21032576.35025   -402749.32725      1756.79825        35.29725
R22  19211495.75825   -500402.07825      2185.68325        35.43425
R13  22411603.07025  -1124044.11325      5151.67625        31.71125
R12  19653456.39525   -691490.59825      3111.03425        34.33425
R11  21008844.48027    104792.11927      -551.64827        44.29127
R23  21822463.22327  -1243527.08927      5654.36627        43.14927
R21  21087807.71525    319493.42325     -1539.76725        34.92425
E02  26224522.74126     17184.46926      -106.86926        35.89226  26224360.25324     12628.93524       -79.45824        26.04624
E07  27032877.12925    164829.76925      -795.87825        33.14125  27032700.85125    123726.41025      -593.91825        34.27625
E15  25452990.06226   -547368.31126      4468.11626        40.42926  25452824.27625   -408691.58725      3336.88825        34.67425
E18  20419781.38025  -1002107.13425      4521.56125        32.54825  20419607.50024   -764878.80224      3377.09324        27.69724
E27  25375039.22625   -414883.05325      3392.63825        33.09425  25374865.64625   -309776.48025      2534.04425        33.95925
E30  23779442.43525   -349797.37925      1574.57625        32.82525                                                                
E34  24167313.01726   -475013.98326      2130.54226        37.37926  24167150.23024   -358073.73424      1590.88024        26.79524
E36  26759426.83425     83185.34525      -440.16925        29.80225  26759265.84624     62518.33024      -328.09824        29.32524
> 2023 11 29 03 23 53.0001049  0 24                      
G06  21110738.24027   -798935.12427      3611.12227        45.07027  21110573.95425   -599341.77025      2696.51425        34.13725
G11  23140175.19025  -1109940.49925      5086.87025        32.47025  23140019.89825   -832712.94125      3798.59525        32.76825
G12  23238936.41926   -961499.27326      4367.43726        38.36526                                                                
G13  24556848.94725    337591.50025     -1625.01425        29.95125                                                                
G14  23522272.37023    176282.75023      -879.42523        21.80323                                                                
G15  24836876.98826    226093.95626     -1060.61726        35.65426                                                                
G17  22405528.67524    206199.06224      -972.36524        23.59924                                                                
G19  20456125.81925    -77498.20425       291.98625        34.57525                                                                
G22  22465390.03423      4719.84923       -54.20023        23.33823                                                                
G24  21032604.83127   -533730.86927      2352.20527        44.28527  21032428.55326   -404505.23526      1756.59126        35.71626
R22  19211380.33825   -502588.21425      2185.89125        35.42625
R13  22410948.62325  -1129195.77225      5152.32225        32.08925
R12  19653178.48825   -694601.46625      3109.88125        34.62625
R11  21009236.90827    105344.74827      -551.73127        44.33027
R23  21821712.84327  -1249180.49127      5653.75027        43.41727
R21  21088389.31226    321031.94526     -1539.07226        35.75426
E02  26224840.52126     17290.92826      -107.06126        35.84026  26224681.33124     12708.19824       -79.37824        26.62124
E07  27033328.61625    165625.09325      -795.97225        32.53225  27033151.73825    124320.60225      -593.72125        34.39325
E15  25452438.74326   -551836.38526      4468.61826        39.93326  25452273.25825   -412028.17425      3337.05825        34.66625
E18  20419219.86825  -1006628.65625      4520.61225        32.53325  20419046.88824   -768255.03624      3376.86824        27.42824
E27  25374681.87325   -418274.23925      3392.43925        31.89725  25374519.68625   -312310.11325      2534.49125        34.02425
E30  23779443.03425   -351372.86825      1574.86525        32.98525                                                                
E34  24167206.59126   -477144.22626      2130.00326        37.78526  24167043.80424   -359660.64024      1590.11224        25.78124
E36  26759811.16824     83625.37524      -440.39624        29.47324  26759648.98024     62846.75824      -328.37924        29.18124
> 2023 11 29 03 23 54.0001060  0 24                      
G06  21110381.48727   -802544.69827      3610.22127        45.13027  21110216.30125   -602037.56925      2696.06925        34.43425
G11  23139538.73125  -1115026.78825      5086.67225        33.06125  23139381.34025   -836511.90725      3798.25625        32.43825
G12  23238432.76826   -965867.29226      4366.71226        38.37826                                                                
G13  24557487.50524    339213.22924     -1624.55224        29.21424                                                                
G14  23522767.02723    177159.12923      -879.43623        20.10123                                                                
G15  24837406.72126    227154.51626     -1060.48126        35.99926                                                                
G17  22406048.81524    207170.42624      -973.14824        27.65624                                                                
G19  20456402.22725    -77789.60925       291.76525        35.06225                                                                
G22  22465724.00324      4779.22224       -53.11224        26.49724                                                                
G24  21032482.51527   -536081.84627      2351.49927        43.81327  21032310.43426   -406260.76426      1755.90526        35.50626
R22  19211292.49926   -504772.95926      2184.33226        35.69426
R13  22410310.66525  -1134347.31925      5152.38525        32.36425
R12  19652929.36025   -697712.09925      3110.17125        34.54625
R11  21009671.60727    105898.03127      -552.48627        44.32927
R23  21820981.34927  -1254833.83427      5653.25827        43.37627
R21  21089001.48825    322570.24925     -1537.79525        34.98625
E02  26225193.07726     17397.71426      -106.82426        35.83226  26225031.78824     12787.97024       -79.07324        25.88224
E07  27033810.98225    166420.69425      -796.00325        32.08025  27033632.60625    124914.70225      -593.99625        34.08125
E15  25451918.00426   -556304.57726      4468.25526        39.77326  25451752.21925   -415365.05925      3336.91625        34.43125
E18  20418689.83525  -1011149.64225      4520.06025        32.47325  20418515.95624   -771631.39824      3376.56924        27.92024
E27  25374371.88825   -421666.80625      3392.55925        32.07325  25374203.10525   -314844.09525      2534.17025        33.73625
E30  23779471.81425   -352948.16425      1575.22125        32.43625                                                                
E34  24167132.54226   -479273.73526      2129.59326        37.61826  24166967.05724   -361243.12624      1591.77124        25.73824
E36                                                                  26760061.19524     63175.65224      -328.71624        29.29424
> 2023 11 29 03 23 55.0001070  0 24                      
G06  21109989.65827   -806154.15627      3610.12627        44.90527  21109829.56925   -604733.21025      2695.67325        34.23325
G11  23138871.09325  -1120112.67325      5085.61325        34.11625  23138711.90325   -840310.65825      3798.51725        32.82725
G12  23237902.13526   -970235.30626      4366.67926        38.69026                                                                
G13  24558095.78424    340833.37224     -1623.78124        28.94424                                                                
G14  23523232.00523    178034.31723      -879.12223        18.06023                                                                
G15  24837908.87326    228214.35526     -1059.99726        36.36726                                                                
G17  22406537.17724    208148.09424      -972.96424        28.08824                                                                
G19  20456648.95725    -78080.55325       290.90625        35.43925                                                                
G22  22466046.28024      4831.60424       -56.49224        27.27224                                                                
G24  21032335.31727   -538432.57927      2351.38527        43.88627  21032162.33726   -408016.48826      1755.69026        36.03426
R22  19211184.57425   -506957.20525      2183.65425        35.00225
R13  22409661.31425  -1139498.93025      5151.02825        33.05125
R12  19652653.25125   -700823.04425      3111.16125        34.20325
R11  21010075.12827    106451.19027      -552.45227        44.42327
R23  21820228.57027  -1260486.99527      5653.35127        43.58427
R21  21089580.38725    324108.11925     -1537.59425        34.39125
E02  26225513.55525     17504.40025      -106.30825        35.47725  26225350.46824     12867.54024       -80.78924        26.81224
E07  27034261.57025    167216.12125      -795.66225        32.16525  27034083.79325    125508.36025      -593.88425        34.01425
E15  25451369.08426   -560772.88726      4468.59926        40.10426  25451201.20025   -418702.29425      3337.62425        34.79425
E18  20418129.82325  -1015670.38725      4520.00425        32.26425  20417953.84524   -775007.57724      3376.91924        27.91524
E27  25374024.12925   -425060.31125      3392.99725        32.61525  25373856.54525   -317378.63725      2534.53625        34.26525
E30  23779472.71425   -354524.40225      1576.04525        32.95125                                                                
E34  24167025.21726   -481402.81126      2128.98926        37.14126  24166861.23024   -362821.44024      1589.78124        26.16024
E36  26760615.51125     84506.68925      -440.76325        30.39625  26760444.33025     63504.08925      -328.12125        29.97025
> 2023 11 29 03 23 56.0001081  0 24                      
G06  21109635.60327   -809763.35727      3610.08227        44.95727  21109471.91725   -607428.73125      2695.35125        33.20025
G11  23138232.23525  -1125199.05825      5085.92625        35.30525  23138073.34525   -844109.61525      3798.79725        32.72325
G12  23237395.18626   -974604.34526      4368.91926        38.37826                                                                
G13  24558730.14524    342453.44224     -1623.86624        28.39924                                                                
G14  23523729.36122    178909.04822      -877.46822        15.79922                                                                
G15  24838440.40625    229273.69125     -1059.42025        34.65825                                                                
G17  22407043.22724    209121.56724      -972.53824        28.89324                                                                
G19  20456920.86825    -78371.87125       291.12425        34.05625                                                                
G22  22466388.94324      4885.63124       -57.49524        28.02724                                                                
G24  21032216.00027   -540783.49227      2351.27527        43.49927  21032044.21926   -409772.06926      1755.35526        35.58726
R22  19211107.82725   -509141.07225      2183.56225        34.90125
R13  22409029.95125  -1144650.81725      5151.69625        34.08825
R12  19652397.22925   -703934.35325      3111.49825        33.89625
R11  21010515.22327    107004.10627      -552.45027        44.77727
R23  21819501.57327  -1266140.17927      5652.93227        43.70427
R21  21090191.36425    325646.21925     -1537.19725        34.46825
E02  26225866.11126     17610.27326      -105.90826        36.51626  26225698.22724     12947.21324       -78.62724        26.84824
E07  27034739.43925    168011.73925      -795.40725        32.79225  27034563.76125    126102.52025      -593.61525        34.49625
E15  25450846.24627   -565241.85127      4468.55927        41.67827  25450680.46125   -422039.56225      3337.16025        34.91025
E18  20417596.49225  -1020190.64925      4520.10225        32.54025  20417422.91224   -778384.22024      3376.81324        27.87024
E27  25373709.04725   -428453.77625      3393.61925        34.55025  25373540.26425   -319913.62325      2535.04325        34.29625
E30  23779502.99325   -356099.09025      1576.64825        32.85325                                                                
E34  24166952.96726   -483531.50726      2129.10226        37.81826  24166786.58224   -364402.27724      1589.75524        28.54424
E36  26761030.12425     84946.89125      -440.78825        30.41025  26760858.04325     63832.71625      -327.85425        30.20825
> 2023 11 29 03 23 57.0001091  0 24                      
G06  21109246.77327   -813372.05427      3609.31527        44.33627  21109084.58525   -610123.34425      2694.90125        32.38625
G11  23137569.69425  -1130285.12425      5085.92025        35.36425  23137404.80825   -847907.67725      3799.07025        33.67725
G12  23236872.64826   -978973.95426      4370.39726        39.44426                                                                
G13  24559331.52924    344077.83324     -1624.79324        27.13824                                                                
G14  23524196.13823    179783.85923      -877.78123        20.20323                                                                
G15  24838939.86026    230333.63526     -1059.39726        36.95326                                                                
G17  22407525.89325    210095.21025      -974.59225        29.96425                                                                
G19  20457166.99826    -78663.10026       292.06026        37.96826                                                                
G22  22466700.42724      4941.60424       -57.25824        28.14724                                                                
G24  21032068.50227   -543133.36127      2350.26127        43.34127  21031896.72125   -411526.64325      1755.00325        35.48625
R22  19210998.10325   -511323.53925      2183.00325        34.32625
R13  22408369.20925  -1149803.19725      5153.21225        33.89125
R12  19652115.12425   -707044.77425      3110.53525        34.79525
R11  21010915.74627    107557.85627      -553.17027        45.07327
R23  21818738.90127  -1271793.04427      5652.59427        43.73127
R21  21090864.99825    327184.74725     -1537.93125        34.63925
E02  26226181.79225     17717.89825      -106.82225        34.66625  26226018.10524     13027.41124       -80.88124        28.26424
E07  27035190.32725    168806.50125      -795.10825        29.66125  27035015.54825    126695.97125      -593.74625        34.85625
E15  25450296.72626   -569709.60226      4468.05326        39.37326  25450130.04225   -425375.81525      3336.91125        35.15725
E18  20417037.37925  -1024710.71925      4520.16925        30.69725  20416863.20024   -781760.08524      3375.70524        29.39624
E27  25373346.29825   -431847.70525      3394.33825        32.40425  25373194.60325   -322447.69125      2534.73625        34.30025
E30  23779500.89425   -357675.48025      1576.81825        32.70125                                                                
E34  24166843.24325   -485659.99525      2128.72925        34.88425  24166682.25424   -365989.12024      1588.61824        25.32824
E36  26761417.45624     85387.86624      -440.72724        28.47924  26761240.57925     64161.30425      -329.15825        30.72625
> 2023 11 29 03 23 58.0001102  0 23                      
G06  21108891.21927   -816980.25327      3608.83527        44.88827  21108727.83225   -612818.28925      2694.75125        33.76825
G11  23136926.93925  -1135371.47825      5086.08925        34.08125  23136766.55025   -851706.15325      3798.40925        32.78625
G12  23236372.29426   -983343.83526      4370.13926        38.54926                                                                
G13  24559980.87924    345704.15224     -1624.69424        26.59424                                                                
G15  24839466.29525    231393.04925     -1058.88925        34.64725                                                                
G17  22408038.23825    211069.74725      -975.72725        31.49725                                                                
G19  20457440.70826    -78952.61826       286.80926        36.49626                                                                
G22  22467036.79425      4997.97725       -57.45925        29.69125                                                                
G24  21031947.98527   -545482.85027      2349.52127        43.15527  21031779.80226   -413281.20526      1754.28426        35.77526
R22  19210914.76025   -513506.22025      2182.09825        34.41325
R13  22407732.45025  -1154955.48825      5152.54425        32.93925
R12  19651862.69925   -710153.45025      3110.41725        32.38425
R11  21011355.84127    108111.70927      -553.52627        44.76727
R23  21818010.70527  -1277445.63327      5653.07627        43.53427
R21  21091466.08226    328724.51226     -1540.11726        36.83026
E02  26226536.14726     17824.76226      -106.24226        36.93726  26226368.26324     13106.85524       -79.02224        27.84324
E07  27035670.59525    169601.46725      -794.89125        31.85525  27035496.41525    127289.94625      -593.47125        35.32525
E15  25449774.18826   -574178.14526      4468.64226        39.73126  25449609.30225   -428712.98225      3336.87525        34.93325
E18  20416508.24525  -1029230.57425      4520.14425        31.21225  20416332.26724   -785135.52124      3375.41524        27.93624
E27  25373039.31025   -435242.63925      3394.91825        32.06825  25372878.02225   -324982.39325      2534.52825        34.77825
E30  23779530.27425   -359251.60125      1576.63125        33.32225                                                                
E34  24166766.49626   -487788.23426      2128.26826        37.81226  24166604.90824   -367578.35624      1589.75824        27.73924
E36  26761829.97125     85828.30025      -440.93425        30.41325  26761655.19225     64490.32925      -329.26125        30.97325
> 2023 11 29 03 23 59.0001112  0 23                      
G06  21108505.98527   -820587.53127      3607.56427        44.73227  21108340.20025   -615512.03325      2693.50825        33.77625
G11  23136262.59926  -1140456.74226      5085.40626        35.51326  23136098.61225   -855504.01625      3798.06525        32.90425
G12  23235805.38726   -987712.74826      4369.06426        39.14226                                                                
G13  24560590.05725    347329.71725     -1623.25425        30.09325                                                                
G15  24839971.44625    232452.63825     -1058.46125        33.55725                                                                
G17  22408518.50525    212044.79525      -975.77425        33.93925                                                                
G19  20457682.04125    -79240.67925       285.70225        34.12825                                                                
G22  22467347.97925      5055.76425       -57.47225        30.30425                                                                
G24  21031793.59227   -547831.15027      2349.14527        42.23527  21031632.30425   -415035.16125      1753.78325        34.69125
R22  19210815.52925   -515687.20025      2180.74225        34.35825
R13  22407058.51625  -1160107.51625      5151.86425        34.83925
R12  19651545.21825   -713262.62725      3109.30925        34.36325
R11  21011755.16527    108666.79027      -554.69827        44.77627
R23  21817252.53027  -1283096.97627      5651.00327        41.95227
R21  21092058.77225    330265.22825     -1540.22925        35.31425
E02  26226856.32526     17932.22626      -107.45626        36.82526  26226687.24224     13186.82824       -79.24224        25.89224
E07  27036118.78425    170397.45425      -795.52025        34.06225  27035946.70425    127884.09825      -594.13225        33.66625
E15  25449224.06927   -578645.05527      4466.98627        41.63727  25449058.88325   -432049.43125      3336.41025        35.01425
E18  20415946.73425  -1033749.30325      4519.38925        30.77925  20415772.55524   -788509.92624      3373.98324        27.82124
E27  25372704.74226   -438636.01226      3393.81626        39.40326  25372531.76225   -327517.29825      2534.99825        34.75025
E30  23779531.47325   -360827.12925      1575.98825        34.01325                                                                
E34  24166669.66326   -489915.21626      2126.81326        39.11026  24166500.28024   -369166.86324      1587.50624        28.24324
E36  26762210.10724     86272.55024      -441.48224        26.85724  26762039.22625     64820.32725      -330.13825        31.69525
> 2023 11 29 03 24 00.0001122  0 23                      
G06  21108118.65427   -824194.09827      3607.15427        44.96027  21107952.86825   -618205.16625      2693.32925        33.79025
G11  23135612.34926  -1145541.62826      5084.44826        38.66026  23135430.37525   -859301.24625      3797.50925        33.97725
G12  23235283.44827   -992081.29727      4368.06527        42.14227                                                                
G13  24561200.43525    348953.64225     -1622.46825        31.60525                                                                
G15  24840476.29626    233512.87526     -1060.18126        35.62826                                                                
G17  22409000.87225    213020.90225      -975.88225        34.26725                                                                
G19  20457925.17325    -79525.66225       288.67325        34.80725                                                                
G22  22467672.35425      5112.83225       -57.78925        29.79025                                                                
G24  21031647.59326   -550178.67826      2348.28326        39.58926  21031485.70526   -416787.96026      1753.22626        36.50626
R22  19210714.19925   -517867.38725      2179.72025        34.00025
R13  22406389.67926  -1165259.53026      5152.14726        35.82326
R12  19651241.52925   -716370.85525      3107.82525        35.48125
R11  21012155.98727    109222.36827      -554.91227        44.29627
R23  21816492.55627  -1288747.93727      5650.93527        42.58427
R21  21092654.15925    331806.57625     -1540.84425        35.43925
E02  26227175.60425     18039.48425      -107.65025        34.60325  26227007.12124     13267.74424       -80.82824        24.06824
E07  27036572.07125    171193.54325      -796.17425        32.32225  27036397.59125    128478.88525      -595.26925        32.88825
E15  25448673.95027   -583112.34727      4467.18327        42.64627  25448508.46426   -435385.26026      3336.23026        35.53026
E18  20415382.82525  -1038268.11825      4518.19425        30.69325  20415214.34125   -791883.87725      3373.94625        29.63325
E27  25372355.48426   -442028.75626      3392.79426        40.81626  25372185.80125   -330050.71325      2533.55025        34.04525
E30  23779533.57125   -362402.37725      1575.25225        33.04625                                                                
E34  24166556.64126   -492042.02526      2126.41726        37.52926  24166393.85424   -370755.22224      1588.45324        27.68924
E36  26762599.23825     86714.78325      -442.64225        30.68525  26762423.85925     65153.13825      -330.76325        29.93525
> 2023 11 29 03 24 01.0001133  0 23                      
G06  21107763.99927   -827799.97527      3606.43827        45.00027  21107596.41525   -620897.60725      2691.75025        31.93025
G11  23134964.49726  -1150626.39326      5084.32926        38.95626  23134791.81725   -863098.71325      3797.35025        34.28425
G12  23234792.98827   -996449.63727      4368.40427        42.13027                                                                
G13  24561844.08925    350577.10525     -1623.63025        32.65225                                                                
G15  24841006.32926    234573.70126     -1061.73726        36.83026                                                                
G17  22409515.91525    214000.45025      -976.97225        34.01425                                                                
G19  20458201.28226    -79814.06826       289.27926        36.06626                                                                
G22  22468017.71524      5170.13424       -58.31924        28.52224                                                                
G24  21031533.37226   -552524.99726      2346.36026        40.11326  21031368.78626   -418540.53226      1752.59326        37.98926
R22  19210639.25125   -520046.74925      2178.87225        32.71725
R13  22405758.01626  -1170411.23626      5151.49326        35.68226
R12  19651000.19626   -719478.83326      3108.24726        37.06826
R11  21012597.88127    109778.26727      -555.49427        43.98827
R23  21815767.95827  -1294398.58127      5650.29827        42.89327
R21  21093283.42425    333348.83725     -1541.55925        32.59025
E02  26227524.26325     18147.66825      -107.41525        32.85425  26227358.47824     13348.28624       -79.74424        24.70324
E07  27037056.23525    171989.53625      -796.81325        30.71225  27036878.45925    129073.32225      -594.62625        32.49225
E15  25448152.91027   -587578.64727      4466.51827        41.90327  25447987.42525   -438720.92525      3335.70625        34.99625
E18  20414851.89225  -1042783.75925      4516.95725        31.00025  20414683.10925   -795257.85725      3374.55125        31.97325
E27  25372039.20326   -445421.71026      3393.13626        40.84926  25371868.92125   -332584.99425      2534.37025        33.89125
E30  23779561.45225   -363977.60525      1574.31125        33.85625                                                                
E34  24166479.89426   -494167.83726      2125.89926        36.47626  24166320.40524   -372342.33724      1587.80324        27.08524
E36  26763013.25124     87154.05824      -443.60724        26.65524  26762836.37424     65484.07524      -330.29724        26.79424
> 2023 11 29 03 24 02.0001143  0 23                      
G06  21107379.96527   -831405.45627      3605.76827        45.43427  21107208.78325   -623590.26825      2692.14225        31.72025
G11  23134295.06126  -1155711.37926      5085.76426        38.04826  23134123.87925   -866895.94325      3797.06925        34.17125
G12  23234260.55627  -1000818.05627      4368.47827        41.55727                                                                
G13  24562451.16925    352201.30325     -1624.84325        32.04125                                                                
G15  24841504.88426    235634.57326     -1060.69426        37.60426                                                                
G17  22410002.47825    214979.18525      -977.31525        32.25825                                                                
G19  20458446.51226    -80107.94526       288.94326        36.05826                                                                
G22  22468317.20824      5226.93924       -55.91924        27.62724                                                                
G24  21031390.67126   -554870.77726      2345.91526        39.93226  21031221.58826   -420292.60326      1752.18426        38.38126
R22  19210536.42225   -522225.71725      2178.09725        31.86925
R13  22405090.37926  -1175562.47826      5151.03026        35.69526
R12  19650712.09526   -722586.93626      3109.57326        36.65726
R11  21012996.90527    110334.82327      -556.29627        43.57227
R23  21815008.28427  -1300049.27127      5650.95027        43.25027
R21  21093900.09725    334893.56625     -1540.95325        29.70825
E02  26227846.24025     18255.17325      -107.41625        33.45525  26227676.55723     13424.20923       -81.35623        23.28523
E07  27037509.52225    172786.18825      -797.25825        29.53125  27037329.04725    129667.53125      -594.32925        31.97625
E15  25447602.49127   -592045.14627      4466.56927        41.69927  25447436.10726   -442056.67726      3335.58326        35.51026
E18  20414290.98025  -1047300.61925      4516.00125        31.84125  20414123.69625   -798630.87525      3373.25825        32.52825
E27  25371686.34726   -448814.56526      3393.05226        41.06426  25371522.36125   -335119.00325      2534.11225        34.57525
E30  23779560.25325   -365552.20425      1573.84225        33.36225  23779402.86223   -280013.81823      1174.21223        21.00423
E34  24166372.26926   -496293.35626      2125.59826        36.43926  24166216.07724   -373930.05524      1588.04424        25.06824
E36  26763402.98224     87593.40624      -444.15324        25.96524  26763218.60924     65814.75724      -330.86524        28.52924
> 2023 11 29 03 24 03.0001154  0 23                      
G06  21107023.21227   -835010.01227      3605.23727        45.63827  21106852.63025   -626282.12125      2691.65325        31.57925
G11  23133650.50726  -1160796.16126      5084.69526        37.70126  23133485.02225   -870692.87325      3797.06225        33.50325
G12  23233760.80227  -1005186.37827      4368.09427        41.57327                                                                
G13  24563089.12725    353825.49525     -1623.78825        31.30325                                                                
G15  24842036.71626    236695.40526     -1060.37326        38.55926                                                                
G17  22410518.12125    215955.21225      -976.65325        29.85825                                                                
G19  20458722.62126    -80395.51926       287.88926        36.42926                                                                
G22  22468653.87524      5283.07524       -54.92424        25.53224                                                                
G24  21031277.94926   -557216.30526      2346.15326        40.92026  21031104.66926   -422043.94626      1751.88226        38.16426
R22  19210467.17025   -524403.00225      2177.02225        32.12825
R13  22404449.12326  -1180713.21526      5150.03026        35.90226
R12  19650476.45826   -725694.20526      3107.55426        36.87826
R11  21013425.90827    110892.08727      -556.45927        43.31327
R23  21814287.28327  -1305699.62627      5650.79927        42.88327
R21  21094555.14324    336436.94924     -1542.40124        25.18024
E02  26228195.49825     18362.50825      -107.59425        33.53625  26228024.91624     13497.89324       -80.76524        25.88524
E07  27037993.98624    173583.29124      -797.55624        27.07324  27037810.21325    130262.43725      -594.78125        32.58625
E15  25447079.65326   -596511.70726      4465.96026        40.87026  25446915.66725   -445391.87825      3335.50325        34.76725
E18  20413763.64525  -1051816.44325      4515.35825        32.53325  20413593.36325   -802003.59725      3372.79625        32.50625
E27  25371365.26926   -452205.64926      3393.09726        40.37826  25371206.08025   -337652.69225      2533.80325        34.04525
E30  23779588.13425   -367126.21725      1573.57525        33.49125                                                                
E34  24166296.12126   -498418.67426      2124.63626        35.84626  24166141.12924   -375514.63524      1586.83924        24.25624
E36  26763805.30324     88035.98624      -444.56524        26.08724  26763631.72324     66145.95224      -330.67924        27.41224
> 2023 11 29 03 24 04.0001164  0 23                      
G06  21106638.27827   -838614.14427      3604.98827        45.60627  21106466.19825   -628973.97425      2691.60625        31.41325
G11  23132989.46526  -1165880.40726      5084.81126        37.68826  23132816.48425   -874490.13725      3797.17625        33.83225
G12  23233231.96827  -1009554.68527      4368.11027        42.21627                                                                
G13  24563699.80425    355449.31725     -1623.79925        30.92525                                                                
G15  24842540.66726    237755.18826     -1058.35026        38.02526                                                                
G17  22411006.18324    216930.18224      -975.66224        29.31524                                                                
G19  20458971.14926    -80682.68926       286.93226        36.93326                                                                
G22  22468957.56424      5335.56624       -53.81724        23.81124                                                                
G24  21031135.84826   -559561.35326      2345.36426        41.14226  21030957.47126   -423795.26926      1751.45426        38.48026
R22  19210367.63925   -526578.94225      2175.00125        32.14925
R13  22403790.17926  -1185864.26626      5150.47926        35.80726
R12  19650196.45226   -728800.08226      3104.48926        37.55926
R11  21013827.93027    111449.45827      -556.70927        43.04327
R23  21813530.60727  -1311349.46127      5650.53027        42.95727
R21  21095140.63823    337978.56723     -1543.65023        22.77723
E02  26228515.37725     18469.98325      -107.78625        33.62825  26228345.39424     13568.69624       -80.06024        25.63824
E07  27038446.37324    174377.49324      -797.55724        25.49024  27038260.80225    130857.50225      -594.08525        33.05325
E15  25446529.53426   -600977.58226      4466.33026        40.87926  25446365.24825   -448727.42225      3335.53825        35.17625
E18  20413203.33325  -1056331.98125      4515.04125        32.00125  20413033.95125   -805376.35925      3372.90225        32.30825
E27  25371024.70526   -455598.59326      3393.17826        40.29726  25370859.22025   -340186.85025      2534.08225        34.03625
E30  23779586.03525   -368700.41925      1573.72725        33.36225                                                                
E34  24166191.19426   -500543.08126      2124.73626        35.53826  24166036.50124   -377099.89324      1586.98424        26.44324
E36  26764186.04024     88480.20324      -444.65824        27.61124  26764014.55824     66477.23324      -331.76324        28.21324
> 2023 11 29 03 24 05.0001175  0 23                      
G06  21106280.62627   -842216.89027      3603.30827        45.68427  21106109.74425   -631664.57925      2690.80925        31.62825
G11  23132354.50426  -1170964.52726      5084.50126        37.59526  23132179.12625   -878286.35125      3796.48225        33.13625
G12  23232744.80527  -1013922.14427      4366.55527        43.07927                                                                
G13  24564335.66425    357074.59625     -1626.03525        30.97825                                                                
G15  24843072.49926    238815.86926     -1059.79326        36.95726                                                                
G17  22411519.72825    217907.56425      -976.00825        30.48125                                                                
G19  20459246.35826    -80971.08826       285.44926        36.00226                                                                
G22  22469266.05124      5390.99824       -58.78524        25.72224                                                                
G24  21031017.72926   -561904.77526      2342.38826        40.78826  21030840.85226   -425545.13726      1749.96126        38.37026
R22  19210278.00125   -528753.15125      2173.41625        34.30225
R13  22403146.52425  -1191014.91125      5151.07525        35.12525
R12  19649965.01226   -731904.24326      3102.51726        37.47826
R11  21014256.93327    112007.53727      -558.26727        43.35327
R23  21812806.60827  -1316998.09627      5648.69127        42.76627
R21  21095608.01424    339520.15324     -1543.80824        28.32524
E02  26228866.13425     18578.52125      -108.29125        34.18125  26228695.85224     13635.86624       -81.15024        25.26724
E07  27038929.03924    175169.20824      -797.90024        27.43524  27038741.06925    131452.95325      -595.42525        31.70225
E15  25446009.69426   -605442.99926      4465.23526        41.30226  25445845.10825   -452062.21225      3334.91925        35.19825
E18  20412672.40125  -1060847.14625      4514.73825        31.45825  20412503.61825   -808747.87225      3371.63225        31.72125
E27  25370699.43026   -458990.88326      3392.25926        39.93926  25370543.53825   -342720.30625      2533.42725        33.94425
E30  23779616.61425   -370274.45725      1573.70525        32.30625                                                                
E34  24166117.44526   -502666.66426      2123.31726        36.60126  24165961.25324   -378689.50524      1587.90724        25.85124
E36  26764612.34424     88924.89624      -444.83424        27.58324  26764429.77124     66809.09724      -331.52824        29.01224
> 2023 11 29 03 24 06.0001185  0 23                      
G06  21105894.49327   -845818.97327      3602.50627        45.66127  21105723.91125   -634354.57025      2690.11925        32.21525
G11  23131682.07026  -1176047.87426      5083.42926        37.59126  23131511.48825   -882082.26125      3796.07125        33.61925
G12  23232206.67827  -1018289.20727      4366.83927        43.54227                                                                
G13  24564940.94525    358700.29525     -1625.98425        30.59825                                                                
G15  24843574.65126    239877.63926     -1061.51726        38.08726                                                                
G17  22412001.19425    218883.91625      -976.17225        30.70025                                                                
G19  20459490.68926    -81258.08426       286.42126        35.77826                                                                
G22  22469569.74124      5450.48724       -60.11724        26.79024                                                                
G24  21030872.63026   -564246.79526      2341.80726        40.95326  21030693.95426   -427294.83726      1749.99826        38.50926
R22  19210162.58125   -530926.43425      2172.89125        34.84125
R13  22402473.49025  -1196165.84425      5151.53225        34.46125
R12  19649682.60826   -735008.01526      3102.72826        37.99826
R11  21014658.05527    112566.88127      -558.95327        43.14527
R23  21812052.93027  -1322645.36727      5646.22727        42.78027
R21  21096170.72524    341065.23924     -1546.63124        29.27024
E02  26229185.71325     18687.10125      -109.03825        34.73525  26229015.13124     13716.88124       -79.31824        24.15924
E07  27039384.42424    175958.35624      -797.93024        27.21124  27039192.25725    132048.44625      -595.15725        30.84725
E15  25445459.57526   -609907.12626      4464.24426        41.35726  25445294.98926   -455396.35426      3334.39326        35.51426
E18  20412112.98825  -1065360.90225      4514.14225        31.20525  20411944.50525   -812118.93725      3371.14125        32.14925
E27  25370360.36526   -462382.43626      3391.78326        39.80826  25370197.57825   -345253.43325      2533.36425        33.59025
E30  23779617.21425   -371847.54625      1573.38625        32.03725                                                                
E34  24166011.91826   -504788.97226      2122.56026        36.78126  24165856.92524   -380282.35524      1585.38724        25.89024
E36  26764994.58024     89370.50124      -445.43124        27.65824  26764813.20524     67141.79324      -332.41924        29.39724
> 2023 11 29 03 24 07.0001196  0 23                      
G06  21105536.24127   -849420.55427      3601.97927        45.79427  21105367.75825   -637044.03625      2689.44925        34.37825
G11  23131047.40926  -1181130.92226      5083.69826        37.14126  23130873.82925   -885877.94425      3795.23725        33.20625
G12  23231725.21127  -1022655.76127      4365.82827        44.31027                                                                
G13  24565573.50725    360325.69025     -1625.63825        30.42225                                                                
G15  24844109.78126    240939.87126     -1062.81126        36.66426                                                                
G17  22412512.34125    219860.14625      -975.50525        30.76425                                                                
G19  20459768.29726    -81543.73026       286.05726        35.53926                                                                
G22  22469918.69925      5509.66025       -59.37425        30.84525                                                                
G24  21030754.51226   -566588.28426      2341.36126        40.73526  21030578.23426   -429043.78926      1749.48126        38.44926
R22  19210086.73426   -533099.41126      2173.02326        35.77526
R13  22401831.33525  -1201316.66225      5151.61025        33.18125
R12  19649428.98326   -738111.68626      3104.66926        36.98426
R11  21015093.35427    113126.88827      -559.28927        42.31427
R23  21811322.93527  -1328292.39127      5646.54727        42.41227
R21  21096847.95625    342612.12125     -1547.88225        32.50925
E02  26229537.96925     18796.31525      -109.63125        35.32225  26229365.88824     13798.72524       -83.71624        24.39924
E07  27039865.29124    176744.94124      -798.00524        25.10624  27039673.12425    132644.20225      -595.92325        30.14825
E15  25444941.53427   -614370.90427      4464.05327        41.75127  25444774.84926   -458730.44226      3334.01526        35.87926
E18  20411585.05425  -1069874.37925      4513.38025        31.60325  20411414.77225   -815489.56025      3370.78625        31.75725
E27  25370037.18926   -465774.61426      3391.84226        39.90326  25369882.19625   -347786.58525      2533.20825        34.88625
E30  23779648.69225   -373420.76525      1573.17925        30.77925                                                                
E34  24165946.86326   -506911.25626      2121.73026        37.45126  24165782.27724   -381879.99224      1584.62124        25.91524
E36  26765423.28324     89816.37424      -445.95124        28.02524  26765228.41824     67474.56924      -333.11724        28.95724
> 2023 11 29 03 24 08.0001206  0 23                      
G06  21105152.20727   -853021.40527      3601.63227        45.39227  21104981.62525   -639733.12025      2689.25925        33.03525
G11  23130373.17626  -1186212.93126      5081.21826        36.49626  23130205.89225   -889673.59125      3795.72025        33.56825
G12  23231182.58727  -1027022.71127      4366.79527        44.43127                                                                
G13  24566180.88724    361949.96124     -1623.86124        29.46824                                                                
G15  24844607.73626    242002.14326     -1062.04426        39.16526                                                                
G17  22412995.60624    220831.37524      -975.58224        28.34424                                                                
G19  20460008.73126    -81828.47526       284.42226        36.11626                                                                
G22  22470226.58624      5567.89524       -58.86824        28.44324                                                                
G24  21030608.81226   -568929.56826      2340.91226        41.09926  21030432.53526   -430792.02826      1748.74026        38.47626
R22  19209983.90525   -535272.16025      2172.22525        31.42525
R13  22401161.59925  -1206467.85025      5150.89225        32.96425
R12  19649147.47826   -741216.29726      3104.96526        37.90726
R11  21015501.37127    113686.96827      -559.54427        42.50027
R23  21810558.76427  -1333939.36227      5646.66427        42.41127
R21  21097441.84524    344156.35724     -1547.76624        28.12524
E02  26229857.54725     18905.74025      -109.91625        34.25125  26229686.66624     13878.10224       -79.10724        25.69924
E07  27040321.57523    177530.89623      -798.09723        22.65323  27040125.21125    133239.97625      -595.56825        31.35325
E15  25444382.72026   -618835.12726      4464.39126        40.08326  25444224.73026   -462064.34726      3334.20726        36.25226
E18  20411038.53225  -1074387.12625      4512.62625        33.65725  20410855.95825   -818859.82925      3370.52025        32.40025
E27  25369696.62426   -469166.54226      3392.19626        39.69326  25369535.63625   -350319.74725      2533.31125        34.44125
E30  23779647.19325   -374993.64825      1572.93325        33.13825                                                                
E34  24165835.34025   -509033.24125      2122.20125        34.96325  24165677.35024   -383470.56524      1585.03024        26.47324
E36  26765766.54524     90262.54224      -446.28124        29.02724  26765611.55324     67807.20024      -332.49724        28.38924
> 2023 11 29 03 24 09.0001217  0 23                      
G06  21104793.65527   -856622.01627      3600.88527        45.39227  21104626.07125   -642422.10625      2688.73925        31.45825
G11  23129735.21825  -1191294.21325      5080.81825        34.29725  23129567.93325   -893469.42725      3795.65425        33.69425
G12  23230678.03627  -1031389.60327      4367.52027        42.16427                                                                
G13  24566824.54124    363574.31424     -1624.23124        27.84324                                                                
G15  24845144.66426    243064.21726     -1062.54026        37.31226                                                                
G17  22413503.75425    221807.85225      -975.34425        31.40125                                                                
G19  20460284.24026    -82112.39526       283.69626        38.82626                                                                
G22  22470580.04124      5626.35624       -57.53524        28.61324                                                                
G24  21030481.10126   -571269.28326      2340.09226        39.27126  21030316.51526   -432540.10926      1747.88426        37.88626
R22  19209861.88925   -537443.13625      2170.91025        34.23725
R13  22400533.23425  -1211617.94525      5150.62825        30.97825
R12  19648916.33825   -744319.62825      3104.52925        35.42425
R11  21015947.46227    114247.49327      -560.23227        43.09927
R23  21809831.46826  -1339585.33326      5645.86526        39.66626
R21  21098086.09924    345701.68124     -1546.75124        27.92524
E02  26230206.20625     19015.62225      -110.13025        33.65925  26230039.52124     13960.11024       -81.28524        26.88424
E07  27040777.25924    178318.84724      -798.73224        27.54524  27040608.17625    133835.55725      -595.72025        33.88225
E15  25443869.17626   -623299.39726      4463.95226        39.82226  25443705.18926   -465398.34426      3333.87426        35.94326
E18  20410504.30225  -1078899.77425      4512.07525        30.76625  20410326.22525   -822229.81825      3369.86625        31.98425
E27  25369385.44026   -472556.89426      3390.84626        36.54226  25369222.95225   -352852.67025      2532.88725        34.83925
E30  23779675.97325   -376566.58825      1572.55625        35.01925                                                                
E34  24165780.17925   -511155.18525      2121.73525        35.33025  24165603.30124   -385055.17624      1584.63724        24.86424
E36  26766176.06225     90708.51525      -446.46025        29.96325  26766027.96425     68140.22525      -333.43425        31.61125
> 2023 11 29 03 24 10.0001227  0 23                      
G06  21104409.32127   -860221.52927      3600.01027        45.74927  21104241.13825   -645109.88625      2688.30125        33.44125
G11  23129065.18125  -1196375.54325      5080.62925        33.29325  23128899.99625   -897264.12225      3794.53925        30.92125
G12  23230128.51726  -1035756.51426      4367.36626        39.45526                                                                
G13  24567444.81225    365200.14325     -1626.47025        29.89125                                                                
G15  24845645.61726    244127.17126     -1063.13226        39.74826                                                                
G17  22413993.91526    222785.70526      -978.40126        38.28126                                                                
G19  20460530.96926    -82396.13526       284.50626        40.16926                                                                
G22  22470889.42724      5688.29424       -57.83424        25.98824                                                                
G24  21030336.00126   -573608.81126      2339.55226        40.22826  21030170.51626   -434286.99026      1747.01726        38.45626
R22  19209783.04426   -539612.54426      2168.68526        38.59326
R13  22399931.55025  -1216766.94225      5148.40825        31.30525
R12  19648638.13125   -747422.26725      3102.79925        32.18225
R11  21016346.48626    114810.99826      -565.31326        40.70126
R23  21809081.98726  -1345231.45726      5646.44826        40.04926
R21  21098658.70324    347245.75124     -1544.59824        25.39324
E02  26230527.28425     19125.81725      -110.20125        32.56925  26230360.00024     14043.60424       -81.03724        26.35124
E07  27041225.74925    179106.52025      -798.60925        29.73325  27041059.36425    134431.97825      -596.29725        30.65425
E15  25443319.35726   -627762.66726      4462.50026        36.08226  25443155.97026   -468731.47826      3333.54426        37.54126
E18  20409942.79124  -1083411.47324      4511.49924        28.57624  20409767.41225   -825598.59425      3368.88425        31.76325
E27  25369038.88026   -475945.04026      3390.15026        36.40226  25368875.79326   -355385.17726      2532.68526        36.56726
E30  23779677.17226   -378138.63826      1572.09926        36.08926                                                                
E34  24165666.55725   -513274.80125      2119.70125        34.95425  24165496.57524   -386636.46424      1583.08024        23.66624
E36  26766568.49025     91156.16225      -447.25525        32.47825  26766411.69925     68474.38325      -333.80925        34.22725
> 2023 11 29 03 24 11.0001238  0 23                      
G06  21104055.86627   -863819.72327      3599.07027        44.65327  21103885.88426   -647797.06326      2687.38626        35.76826
G11  23128429.92125  -1201456.11725      5079.95425        35.41225  23128262.93724   -901060.05824      3794.34524        26.60524
G12  23229629.66226  -1040122.85326      4367.63126        38.20126                                                                
G13  24568087.56725    366826.45725     -1627.10725        32.75225                                                                
G15  24846177.74926    245189.09626     -1061.49426        35.97226                                                                
G17  22414509.25826    223764.44026      -979.21626        40.46326                                                                
G19  20460808.27726    -82680.90826       288.20826        36.07326                                                                
G22  22471239.28525      5747.98525       -59.22925        29.53425                                                                
G24  21030217.88326   -575946.55126      2336.55226        40.42926  21030054.79626   -436032.93126      1745.87026        36.86626
R22  19209689.80827   -541780.82827      2167.48827        43.22927
R13  22399249.52225  -1221915.20725      5147.21625        31.08425
R12  19648371.91525   -750523.07025      3100.05925        33.85025
R11  21016776.68826    115373.89426      -562.91026        38.52726
R23  21808356.48926  -1350875.84226      5644.32826        40.82726
R21  21099245.99626    348790.61326     -1547.19726        38.05526
E02  26230877.44125     19235.11225      -110.36825        34.60125  26230708.65824     14131.85224       -86.35824        23.96224
E07  27041709.61424    179895.87924      -799.17124        27.49324  27041539.93125    135028.95125      -596.43525        30.75425
E15  25442801.91526   -632225.44826      4461.97226        35.52626  25442634.93026   -472063.99726      3331.86426        36.73726
E18  20409409.76025  -1087921.90225      4510.58625        31.19125  20409239.17825   -828967.22925      3368.71525        29.83925
E27  25368730.99326   -479335.91826      3391.20926        38.27026  25368561.91026   -357917.24326      2532.06826        35.51326
E30  23779697.55825   -379710.41025      1571.69025        35.48325                                                                
E34  24165581.41626   -515394.29126      2119.11826        38.58026  24165421.92723   -388218.28523      1582.68523        21.81423
E36  26766991.19826     91604.13326      -448.09126        37.11526  26766826.61226     68808.64926      -333.67826        37.60026
> 2023 11 29 03 24 12.0001248  0 23                      
G06  21103669.73327   -867417.71827      3598.89527        44.42327  21103500.65126   -650483.95426      2687.40726        35.72526
G11  23127764.98126  -1206537.09526      5080.69026        36.52726  23127596.49823   -904857.94923      3794.06723        23.37823
G12  23229093.93326  -1044489.01626      4366.19226        37.15126                                                                
G13  24568694.04725    368452.58625     -1627.13725        32.93125                                                                
G15  24846683.19925    246251.40025     -1062.22025        34.65525                                                                
G17  22414996.12126    224742.59726      -978.57726        41.00926                                                                
G19  20461052.00826    -82965.96226       289.49726        36.11826                                                                
G22  22471547.17224      5808.43524       -60.83224        27.45424                                                                
G24  21030070.98526   -578284.48426      2337.77226        39.72326  21029907.89826   -437778.91626      1746.18426        36.26326
R22  19209593.27527   -543948.72127      2167.65027        43.14927
R13  22398569.89325  -1227064.34525      5148.17725        30.61225
R12  19648085.91326   -753624.11426      3100.01226        35.58626
R11  21017191.60126    115937.32026      -564.78526        37.51526
R23  21807599.81326  -1356520.29926      5643.36726        41.19626
R21  21099852.47626    350339.83826     -1550.29826        40.20626
E02  26231195.82125     19349.55225      -110.45725        35.27425  26231028.83724     14228.30724       -84.03524        23.58724
E07  27042179.08924    180695.38724      -799.62924        28.66324  27041992.61825    135625.48125      -596.23725        33.15025
E15  25442251.79626   -636687.52026      4461.60426        35.53826  25442084.81126   -475396.76326      3332.62926        36.46026
E18  20408847.34925  -1092432.40025      4509.77425        33.84925  20408680.06524   -832335.54424      3368.51424        27.44924
E27  25368381.43526   -482727.75526      3391.58426        39.03626  25368216.24925   -360449.85125      2532.59225        33.32325
E30  23779703.85426   -381282.46426      1571.37126        36.51926                                                                
E34  24165484.58326   -517513.14026      2119.01126        37.50726                                                                
E36  26767364.13926     92051.90326      -447.98426        37.80726  26767211.24526     69143.29526      -333.77226        38.01726
> 2023 11 29 03 24 13.0001259  0 23                      
G06  21103312.08127   -871015.22127      3598.10127        44.71427  21103145.39626   -653170.88026      2686.70926        35.67026
G11  23127133.61925  -1211617.54325      5079.37725        35.37425  23126958.54024   -908656.27124      3794.00424        25.68724
G12  23228599.57526  -1048855.36626      4366.31626        39.46526                                                                
G13  24569331.70625    370077.75825     -1625.30525        32.07925                                                                
G15  24847217.42925    247313.81025     -1062.13225        35.40725                                                                
G17  22415508.76626    225720.43926      -978.11826        40.57926                                                                
G19  20461329.31626    -83251.65926       286.62726        36.47726                                                                
G22  22471882.04024      5867.69024       -58.20624        27.48624                                                                
G24  21029958.26326   -580622.36326      2338.39326        40.37026  21029793.07726   -439525.24426      1746.05426        35.86426
R22  19209506.33527   -546116.16827      2167.49627        42.85527
R13  22397942.42725  -1232213.01725      5151.18025        29.99325
R12  19647837.08526   -756725.18726      3100.67326        36.77526
R11  21017624.50126    116500.91826      -563.70326        39.81226
R23  21806877.91326  -1362164.76126      5644.08726        41.03526
R21  21100500.02827    351888.90427     -1548.85127        42.03427
E02  26231547.17825     19466.11325      -110.51225        35.49825  26231378.69423     14310.96023       -83.23323        22.16123
E07  27042651.86224    181492.58324      -799.96024        24.26724  27042473.18525    136221.68325      -596.22525        33.19725
E15  25441733.75426   -641149.81926      4461.74126        36.18826  25441564.97126   -478729.72026      3332.64426        37.27126
E18  20408320.61425  -1096941.78225      4509.25925        35.45525  20408150.93124   -835703.59324      3367.83424        28.45324
E27  25368057.65926   -486119.58626      3391.60626        39.07626  25367900.26825   -362982.77625      2532.62425        33.42225
E30  23779734.13326   -382853.74226      1571.59326        37.10526                                                                
E34  24165410.53426   -519636.70526      2118.80026        37.15826                                                                
E36  26767792.54326     92499.38126      -447.75126        38.10026  26767626.45826     69477.55926      -334.27926        38.37026
> 2023 11 29 03 24 14.0001269  0 23                      
G06  21102925.64927   -874612.26627      3597.49427        45.89527  21102759.86325   -655856.69425      2685.89225        33.96225
G11  23126458.48625  -1216695.59825      5079.34625        31.10725  23126290.60224   -912451.12024      3795.29724        29.46624
G12  23228071.34126  -1053221.50226      4366.76926        39.80526                                                                
G13  24569941.48325    371704.11225     -1624.22425        29.97425                                                                
G15  24847715.38526    248376.36226     -1063.13226        38.54126                                                                
G17  22415992.93126    226698.81226      -978.51726        40.71626                                                                
G19  20461579.34326    -83534.27626       284.33426        36.46026                                                                
G22  22472194.12424      5926.45224       -56.09124        26.94824                                                                
G24  21029813.76326   -582959.52226      2337.66626        39.64326  21029648.27726   -441270.13226      1745.61526        35.57026
R22  19209405.30527   -548282.86227      2166.59127        43.53227
R13  22397266.09525  -1237363.61625      5151.43225        29.57625
R12  19647551.68326   -759825.86226      3101.41526        36.78526
R11  21018028.32227    117065.02827      -564.09527        41.57127
R23  21806124.83426  -1367808.45326      5643.02626        40.70826
R21  21101072.03227    353438.30727     -1549.24427        43.44127
E02  26231867.95626     19583.94126      -110.46326        35.57826  26231699.47223     14393.25223       -83.36323        21.97323
E07  27043071.27124    182291.35724      -800.14724        29.16824  27042924.37325    136818.57625      -596.77825        33.10825
E15  25441174.94126   -645611.75626      4462.60026        38.36726  25441015.45126   -482062.24426      3332.76026        38.36126
E18  20407763.29926  -1101451.28226      4508.85226        36.33126  20407592.11824   -839070.89624      3367.79124        27.32424
E27  25367718.89426   -489510.94926      3391.36826        39.10126  25367554.60725   -365515.28425      2532.75525        34.00225
E30  23779733.83326   -384425.65226      1571.78726        37.36526                                                                
E34  24165309.80426   -521762.57826      2118.45826        37.20626                                                                
E36  26768182.27326     92948.12226      -448.97626        38.40826  26768011.09226     69812.55626      -334.27626        38.73726
> 2023 11 29 03 24 15.0001280  0 23                      
G06  21102570.39527   -878208.60127      3596.99927        45.10827  21102405.20925   -658541.90225      2685.99725        34.73725
G11  23125820.22825  -1221771.54525      5080.80725        31.96425  23125654.14324   -916245.48824      3794.56824        28.43024
G12  23227568.88926  -1057586.77326      4363.89126        40.02626                                                                
G13  24570578.24325    373328.38925     -1623.26025        30.90025                                                                
G15  24848243.01926    249439.13526     -1061.75126        35.77926                                                                
G17  22416508.57426    227677.20226      -978.65926        41.19326                                                                
G19  20461855.45225    -83813.84725       277.48325        35.27825                                                                
G22  22472509.20624      5981.99324       -55.37324        25.31024                                                                
G24  21029697.14426   -585296.10826      2336.86426        40.20026  21029532.55826   -443015.31326      1745.54826        35.74826
R22  19209330.35727   -550448.09327      2164.39227        43.54127
R13  22396631.73424  -1242512.92124      5148.98424        29.26524
R12  19647312.44926   -762925.39426      3098.29026        36.81226
R11  21018471.71526    117630.02926      -564.68526        41.23826
R23  21805404.43326  -1373451.84926      5643.33726        40.90126
R21  21101689.90427    354988.74127     -1550.35727        42.83727
E02  26232217.51425     19703.02225      -110.62325        35.31825  26232047.53123     14476.81123       -83.91823        22.25823
E07  27043559.93324    183092.52024      -800.10024        25.80324  27043406.43925    137415.76225      -596.72725        31.87925
E15  25440662.29626   -650074.05726      4462.19826        37.34026  25440496.51126   -485394.09526      3333.33326        37.78926
E18  20407233.86626  -1105960.32326      4508.61526        35.61226  20407063.88424   -842438.09424      3366.51624        28.91224
E27  25367401.71326   -492902.05426      3391.14226        39.14126  25367238.32625   -368047.14625      2532.61925        34.51725
E30  23779765.91126   -385997.09126      1571.43426        36.49226                                                                
E34  24165235.45626   -523891.00026      2117.47626        37.27626                                                                
E36  26768585.49426     93397.33326      -449.50026        38.31626  26768425.40526     70147.33326      -334.49726        38.91426
> 2023 11 29 03 24 16.0001290  0 23                      
G06  21102184.26227   -881804.30027      3596.02127        45.52927  21102020.27525   -661226.49325      2685.08725        34.83325
G11  23125145.99525  -1226852.32725      5080.86225        30.23625  23124986.20525   -920038.95425      3793.99825        29.71425
G12  23227037.35726  -1061952.23026      4364.92426        39.50726                                                                
G13  24571187.42125    374952.98025     -1624.54425        31.20325                                                                
G15  24848750.26825    250505.45825     -1064.38125        35.20925                                                                
G17  22416996.63627    228655.90027      -979.67427        41.57127                                                                
G19  20462100.38325    -84093.25125       277.42125        35.49925                                                                
G22  22472827.88524      6038.62424       -61.42424        24.91624                                                                
G24  21029550.84526   -587631.46926      2335.43626        40.25626  21029387.15826   -444759.66526      1743.95726        36.52626
R22  19209226.92927   -552612.06627      2163.29627        44.06827
R13  22395981.78425  -1247661.91825      5148.36025        29.94825
R12  19647021.35026   -766024.72126      3099.36626        36.54726
R11  21018874.63626    118195.00026      -564.59726        41.12826
R23  21804649.55526  -1379095.18726      5643.70726        40.80826
R21  21102269.70327    356539.84527     -1551.00627        42.92027
E02  26232538.89125     19823.37325      -111.00425        34.93725  26232369.80823     14559.22523       -83.11723        20.66623
E07  27044011.12124    183892.91324      -799.85824        25.10124  27043857.92725    138013.16125      -597.09225        32.47325
E15  25440112.77626   -654535.48526      4461.59026        37.24926  25439946.69126   -488721.93526      3332.09426        38.35326
E18  20406675.95225  -1110468.18525      4508.03225        35.41925  20406505.67024   -845804.34624      3366.38924        29.36024
E27  25367057.25226   -496292.61226      3390.77126        39.78926  25366892.66625   -370579.09825      2532.45025        35.27625
E30  23779765.31126   -387567.71426      1570.85826        37.02426                                                                
E34  24165133.22626   -526017.25726      2116.72126        37.20026  24164961.14624   -396171.58324      1581.00424        26.31024
E36  26768977.92226     93847.09226      -449.87226        38.17126  26768810.93826     70483.53426      -335.40726        38.99326
> 2023 11 29 03 24 17.0001301  0 23                      
G06  21101832.60527   -885399.38327      3595.98327        45.70427  21101665.32125   -663910.91425      2684.92025        33.83525
G11  23124511.33424  -1231933.33024      5080.85624        27.64324  23124349.44625   -923831.93225      3792.96625        30.52925
G12  23226544.79826  -1066317.73826      4365.74426        40.21426                                                                
G13  24571826.57824    376577.70024     -1624.06224        28.79924                                                                
G15  24849277.90326    251575.29626     -1064.01726        37.77626                                                                
G17  22417511.68026    229634.60226      -979.02026        40.75926                                                                
G19  20462374.39326    -84372.77926       279.75426        35.81426                                                                
G22  22473184.03824      6100.58024       -63.71824        26.61924                                                                
G24  21029436.62426   -589965.84826      2334.31026        39.99226  21029272.93726   -446502.97726      1744.00326        36.46926
R22  19209153.18027   -554775.53127      2162.92127        43.86927
R13  22395350.42225  -1252810.44425      5147.61825        29.68625
R12  19646759.63126   -769123.21726      3097.61126        36.01826
R11  21019300.64127    118760.58727      -565.18927        41.69627
R23  21803927.35526  -1384738.08026      5643.02726        40.04026
R21  21102880.08027    358091.33727     -1551.75827        42.75127
E02  26232890.84825     19944.86225      -111.45125        34.86425  26232722.06423     14641.55623       -81.91223        22.44523
E07  27044507.57725    184684.08825      -799.63425        30.74325  27044339.39325    138610.60825      -596.45225        32.54125
E15  25439586.34126   -658996.46926      4461.31626        38.34126  25439427.15126   -492046.51726      3332.37526        38.10926
E18  20406148.31726  -1114976.17226      4507.32826        36.05326  20405976.53624   -849170.39224      3366.99424        28.78724
E27  25366740.37126   -499682.98726      3390.68326        38.91526  25366576.98425   -373110.99425      2532.77625        34.85625
E30  23779794.09126   -389138.06726      1570.70726        36.87326  23779622.01024   -297612.64624      1173.28224        25.02924
E34  24165060.67726   -528133.39126      2116.49026        37.56326  24164889.79524   -397752.94124      1580.19024        25.73324
E36  26769407.52526     94297.37226      -449.82626        37.72626  26769226.15026     70814.88326      -334.87726        38.75226
> 2023 11 29 03 24 18.0001311  0 23                      
G06  21101450.07027   -888993.94327      3595.02527        45.76527  21101280.38825   -666597.56925      2684.62925        33.69725
G11  23123845.19524  -1237014.07924      5081.19124        26.65624  23123681.50825   -927625.82525      3793.58325        30.45925
G12  23226009.96826  -1070683.37226      4365.75126        39.92426                                                                
G13  24572439.35424    378201.69924     -1623.82924        27.51424                                                                
G15  24849781.85426    252637.82526     -1061.89326        38.80326                                                                
G17  22417996.74426    230613.75426      -980.27426        40.43226                                                                
G19  20462620.52326    -84654.36526       283.21626        36.47326                                                                
G22  22473497.62124      6162.44024       -62.64524        29.30124                                                                
G24  21029290.62526   -592299.92326      2334.55026        39.22526  21029128.13826   -448245.89426      1743.20526        35.94426
R22  19209049.15227   -556937.78627      2161.93427        44.35227
R13  22394669.89325  -1257959.26825      5148.55525        30.68225
R12  19646500.31126   -772221.33626      3097.36226        35.96926
R11  21019705.96026    119326.37126      -566.13526        41.46726
R23  21803160.18626  -1390381.08026      5644.77426        39.84326
R21  21103472.17027    359642.78927     -1551.50127        42.34827
E02  26233211.02625     20066.37625      -111.71725        34.96925  26233043.14224     14723.08624       -82.07324        23.78724
E07  27044955.46725    185478.39825      -799.46325        32.16625  27044790.58125    139207.43125      -596.68125        33.52625
E15  25439040.11926   -663458.25326      4461.55026        38.87826  25438877.63126   -495368.10026      3331.99726        38.18726
E18  20405589.50426  -1119483.59126      4506.89926        36.32226  20405418.02324   -852536.17324      3365.63924        27.17724
E27  25366392.91226   -503074.41226      3391.21226        39.44126  25366231.32325   -375644.06325      2532.42325        34.34225
E30  23779797.68926   -390709.13626      1570.66626        36.67226  23779629.50524   -298776.26724      1173.73124        25.92124
E34  24164957.54826   -530249.89026      2116.12226        37.88126  24164787.26623   -399334.84423      1580.09723        22.78123
E36  26769786.46226     94747.28726      -450.06226        37.14126  26769610.48426     71141.70726      -335.50226        38.64526
> 2023 11 29 03 24 19.0001322  0 23                      
G06  21101093.91727   -892587.61127      3593.97027        44.00127  21100926.03325   -669280.89125      2683.66125        35.45925
G11  23123212.93325  -1242096.15925      5078.71725        34.21225  23123044.15024   -931418.89224      3793.12024        29.28624
G12  23225512.61227  -1075048.90427      4365.19727        41.60227                                                                
G13  24573075.51424    379826.42524     -1624.16524        28.50024                                                                
G15  24850311.58726    253700.43326     -1061.99026        36.73426                                                                
G17  22418515.68526    231593.00126      -979.51126        40.53426                                                                
G19  20462898.73026    -84934.75726       281.10126        36.61026                                                                
G22  22473839.38525      6224.19725       -61.61125        30.30225                                                                
G24  21029179.10226   -594633.32026      2334.07926        40.52226  21029013.61726   -449988.59626      1743.58826        36.34126
R22  19208967.90827   -559099.23427      2161.76127        43.86527
R13  22394036.13125  -1263106.57925      5148.21525        29.70725
R12  19646244.88825   -775319.52425      3097.98425        35.23625
R11  21020134.36426    119893.59426      -567.73026        38.47526
R23  21802443.08326  -1396023.39626      5643.17426        41.04026
R21  21104095.43927    361195.03727     -1552.23227        42.29527
E02  26233560.88425     20187.51925      -111.93225        35.19825  26233393.60024     14807.02624       -83.33824        24.43724
E07  27045435.43524    186279.84924      -799.69124        27.84924  27045272.94725    139804.79425      -597.36725        34.33425
E15  25438521.47826   -667918.99426      4460.83326        37.39326  25438357.79126   -498686.37126      3331.45026        37.28926
E18  20405062.46926  -1123989.64126      4506.24426        36.73326  20404889.78924   -855901.84424      3365.99224        27.37124
E27  25366076.33126   -506465.43426      3390.48726        39.21026  25365915.64225   -378176.29325      2531.90525        34.19225
E30  23779827.66826   -392279.28326      1570.35226        36.19326  23779660.68324   -299936.60124      1173.06124        25.81724
E34  24164884.39926   -532364.85426      2115.10726        39.07026  24164714.11723   -400918.05223      1580.20023        20.66223
E36  26770200.47626     95198.41826      -450.80326        37.68826  26770026.59626     71468.14326      -336.64326        39.08026
> 2023 11 29 03 24 20.0001332  0 23                      
G06  21100709.88327   -896181.28127      3594.23027        43.70827  21100541.99925   -671964.37925      2683.65125        35.22925
G11  23122546.79426  -1247175.31526      5078.65426        36.41326  23122377.11124   -935212.57024      3794.47224        26.06824
G12  23224984.67827  -1079415.07127      4366.77827        41.91827                                                                
G13  24573678.39624    381450.52724     -1623.29424        28.93224                                                                
G15  24850811.04225    254761.66925     -1058.74425        34.65725                                                                
G17  22419003.74726    232571.87126      -978.38826        41.05226                                                                
G19  20463145.75926    -85212.62226       275.01626        36.67926                                                                
G22  22474148.17125      6285.42425       -61.33925        30.71925                                                                
G24  21029035.80126   -596966.34726      2332.52026        40.70526  21028868.51726   -451730.61426      1742.91626        36.55926
R22  19208858.18427   -561260.56027      2161.37227        43.84727
R13  22393374.48924  -1268253.52624      5147.62424        28.68024
R12  19645965.78126   -778417.43626      3098.82326        35.89126
R11  21020526.49226    120459.30026      -563.98826        36.29026
R23  21801690.60426  -1401664.46326      5640.66826        41.39026
R21  21104689.92727    362748.20527     -1554.07627        42.78527
E02  26233880.16325     20307.69825      -112.01025        35.08425  26233713.77824     14892.08324       -83.53224        24.15124
E07  27045891.11923    187083.35123      -800.47823        23.46323  27045725.03425    140401.81525      -596.73625        33.64425
E15  25437973.45726   -672379.54426      4461.24226        36.27826  25437807.67226   -502007.54626      3331.77226        37.22126
E18  20404504.25626  -1128496.26726      4505.88226        36.64526  20404332.47524   -859266.89024      3366.11024        27.58524
E27  25365731.86926   -509855.94126      3391.03126        38.91726  25365569.38225   -380708.71325      2532.55125        33.61825
E30  23779828.86726   -393850.33626      1570.61026        36.49226  23779661.28323   -301104.64423      1173.40423        22.38223
E34  24164781.57026   -534479.70626      2115.30526        39.20226                                                                
E36  26770568.02126     95648.74826      -450.60526        37.07426  26770411.23026     71803.62126      -335.80826        38.15226
> 2023 11 29 03 24 21.0001342  0 23                      
G06  21100327.04827   -899774.06727      3593.05227        42.05927  21100157.66526   -674647.91426      2683.30226        36.08126
G11  23121880.05626  -1252254.28526      5078.17026        38.64426  23121710.67324   -939006.07524      3793.46724        24.69224
G12  23224458.54227  -1083781.27327      4366.55727        41.84227                                                                
G13  24574283.67724    383073.18924     -1621.84624        26.82324                                                                
G15  24851311.09525    255822.50425     -1058.96525        33.09325                                                                
G17  22419486.71226    233549.74326      -977.21726        40.19726                                                                
G19  20463389.79026    -85490.11626       275.89726        37.84126                                                                
G22  22474456.65725      6347.12325       -62.38025        30.40125                                                                
G24  21028891.90127   -599298.70427      2332.56827        41.52127  21028724.01726   -453472.70426      1741.91126        36.03326
R22  19208759.25327   -563420.60427      2159.97627        43.67527
R13  22392716.44524  -1273404.01324      5148.58024        29.01124
R12  19645688.47326   -781514.69326      3096.55926        35.90326
R11  21020941.70525    121024.73225      -563.79725        34.24125
R23  21800926.73227  -1407305.65927      5640.91427        41.86827
R21  21105273.92327    364301.91227     -1554.35827        42.87327
E02  26234199.74125     20428.42825      -111.82525        35.03325  26234034.85623     14978.50023       -83.39123        23.42123
E07  27046337.51023    187894.05923      -800.00723        22.91023  27046177.72125    140998.75825      -597.05125        33.81125
E15  25437424.83726   -676837.77526      4461.24026        38.36626  25437258.45226   -505339.41326      3331.77326        36.48726
E18  20403945.74226  -1133001.87626      4506.10026        37.56126  20403773.96124   -862631.83924      3364.51924        28.75624
E27  25365385.00926   -513247.43926      3391.20926        38.28726  25365223.72125   -383241.36625      2532.65825        32.41225
E30  23779830.66626   -395420.57326      1570.63526        37.37626  23779661.28324   -302277.51224      1172.46324        23.74024
E34  24164680.24026   -536595.04526      2114.72226        38.93526                                                                
E36  26770973.94026     96098.91626      -450.38526        36.74126  26770796.76326     72139.90226      -336.48326        38.49726
> 2023 11 29 03 24 22.0001353  0 23                      
G06  21099970.59427   -903366.03327      3591.62827        43.93327  21099803.01026   -677329.67826      2682.51926        35.73326
G11  23121239.09926  -1257333.73426      5080.29626        35.82126  23121074.51324   -942799.59724      3793.56424        28.08124
G12  23223960.28726  -1088146.46726      4365.20426        40.98726                                                                
G13  24574920.73624    384699.25724     -1621.00124        24.69224                                                                
G15  24851844.42625    256885.08925     -1062.57525        34.90525                                                                
G17  22420002.65526    234528.71526      -979.35026        39.91526                                                                
G19  20463665.59926    -85767.94426       276.70426        37.88126                                                                
G22  22474797.82124      6408.76624       -60.84324        29.37924                                                                
G24  21028781.87726   -601630.47026      2332.29426        41.12226  21028609.49726   -455213.39626      1740.97726        35.61926
R22  19208692.69927   -565579.87127      2159.08827        43.92727
R13  22392094.67525  -1278554.03625      5150.78225        30.53625
R12  19645430.95125   -784610.89825      3095.19925        35.45425
R11  21021380.60126    121591.94726      -566.36626        36.49226
R23  21800202.43426  -1412946.38626      5640.68926        40.48626
R21  21105892.39527    365856.43327     -1555.37927        42.30427
E02  26234551.39826     20550.58626      -111.72326        35.81526  26234385.31324     15066.33124       -82.93224        23.63724
E07  27046815.67924    188699.24824      -800.37924        27.33624  27046658.88825    141596.63725      -597.10725        34.74825
E15  25436901.99926   -681297.95826      4460.12126        37.91726  25436739.51226   -508670.77426      3331.09226        37.15426
E18  20403418.40726  -1137507.25526      4504.95726        37.89926  20403246.32624   -865995.31224      3363.44924        27.11624
E27  25365061.23426   -516637.71026      3390.71926        37.62126  25364908.33925   -385773.00725      2532.40225        32.94925
E30  23779860.94526   -396989.81826      1569.53126        37.33126  23779691.56224   -303449.54124      1172.17124        26.11624
E34  24164606.19126   -538708.58026      2113.51826        38.94626                                                                
E36  26771385.25626     96550.08126      -451.60426        36.70426  26771211.67626     72477.28526      -336.61226        38.62926
> 2023 11 29 03 24 23.0001363  0 23                      
G06  21099585.66127   -906956.53827      3589.99927        44.12627  21099419.57626   -680014.43926      2682.06826        35.57126
G11  23120572.66125  -1262413.56725      5083.23725        35.19025  23120407.17524   -946592.63424      3793.23024        27.44924
G12  23223432.65226  -1092511.41526      4365.54226        41.28226                                                                
G13  24575538.00924    386317.90024     -1624.26124        23.58124                                                                
G15  24852347.47826    257949.14226     -1064.55026        35.69526                                                                
G17  22420485.92126    235508.55026      -979.72526        39.46726                                                                
G19  20463909.63026    -86046.23826       278.96726        37.49926                                                                
G22  22475110.50524      6473.72224       -61.11924        29.16024                                                                
G24  21028637.97726   -603961.05026      2330.94526        41.07426  21028465.89625   -456953.94825      1740.29325        34.82425
R22  19208582.37527   -567737.42527      2157.15527        43.37427
R13  22391429.43625  -1283703.40225      5150.72125        31.50225
R12  19645142.25125   -787707.57925      3097.99425        34.83325
R11  21021787.41926    122160.50126      -569.53326        36.82726
R23  21799445.45826  -1418585.76226      5638.99326        40.02526
R21  21106459.60227    367411.51727     -1554.80527        42.39827
E02  26234871.87625     20671.13825      -111.65725        35.47325  26234705.79124     15156.35524       -83.94224        23.91924
E07  27047270.76425    189499.53125      -800.77325        31.17925  27047110.67525    142194.73425      -597.37225        34.31125
E15  25436350.68126   -685758.00226      4459.54126        38.11826  25436190.59226   -512001.89226      3331.28826        37.44226
E18  20402861.09326  -1142011.46726      4504.01326        37.94026  20402689.01224   -869358.25724      3362.48224        26.51424
E27  25364720.96926   -520028.13826      3389.97526        37.13026  25364562.97825   -388303.17225      2532.10525        32.46525
E30  23779861.54426   -398566.43526      1569.52126        37.99526  23779692.46124   -304621.25624      1172.26024        25.38824
E34  24164506.66026   -540822.19426      2113.19426        38.71026                                                                
E36  26771769.88926     97002.19026      -452.33126        36.56126  26771597.50926     72813.79426      -337.22626        37.98026
> 2023 11 29 03 24 24.0001374  0 23                      
G06  21099232.80527   -910547.18127      3590.47627        43.06427  21099065.82126   -682700.70526      2681.96026        36.18526
G11  23119940.09926  -1267493.25926      5080.83726        37.46226  23119769.51724   -950385.32524      3792.45224        27.63124
G12  23222931.69926  -1096876.73526      4365.45026        40.70726                                                                
G13  24576187.06023    387945.23623     -1624.14523        23.33423                                                                
G15  24852882.00825    259013.30525     -1065.54125        34.20025                                                                
G17  22421000.66426    236487.81026      -978.55226        39.00126                                                                
G19  20464189.93626    -86323.52826       276.49226        38.35726                                                                
G22  22475451.36924      6539.98124       -62.72324        29.13724                                                                
G24  21028522.85726   -606290.37026      2328.62326        41.29626  21028351.97525   -458693.67925      1740.02225        34.32225
R22  19208500.83227   -569894.60127      2157.09227        43.20727
R13  22390801.37125  -1288852.68725      5150.71125        31.32325
R12  19644887.12825   -790805.14325      3098.41125        34.80125
R11  21022224.21725    122729.92125      -569.64125        34.82725
R23  21798716.36326  -1424224.97726      5638.77526        40.54826
R21  21107084.37027    368966.51927     -1555.50527        42.06627
E02  26235222.33425     20783.11625      -111.74425        35.16625  26235056.84824     15248.74024       -83.81624        24.81224
E07  27047750.43225    190300.06025      -800.85725        30.20325  27047592.74125    142788.55425      -597.24825        34.49425
E15  25435830.54126   -690218.31326      4460.23426        38.40626  25435670.75226   -515332.98726      3331.06026        36.97726
E18  20402332.55926  -1146515.58126      4504.16726        37.89726  20402161.37824   -872721.73224      3363.62024        27.96824
E27  25364404.38826   -523418.98826      3390.79626        36.71026  25364247.29725   -390834.93325      2532.41725        31.96825
E30  23779890.92426   -400140.85526      1570.07926        37.98426  23779719.74324   -305793.42224      1172.21324        27.07324
E34  24164426.31626   -542935.47726      2113.15426        38.56326                                                                
E36  26772184.20326     97454.45926      -452.23026        36.41926  26772012.72126     73151.72426      -337.10026        38.54626
> 2023 11 29 03 24 25.0001384  0 23                      
G06  21098849.07127   -914136.56427      3588.92927        42.24827  21098681.78726   -685384.81026      2680.92626        36.18026
G11  23119272.16126  -1272570.79726      5076.56026        39.00626  23119102.77824   -954179.20724      3792.07324        25.94124
G12  23222397.16926  -1101241.56126      4365.10126        41.05626                                                                
G13  24576786.04524    389573.03424     -1626.73624        24.87524                                                                
G15  24853384.16025    260077.69425     -1065.41825        32.45525                                                                
G17  22421486.02826    237467.78026      -980.24526        39.57726                                                                
G19  20464433.96726    -86599.89926       276.67826        37.52826                                                                
G22  22475765.25125      6603.48825       -63.83925        29.68825                                                                
G24  21028381.05527   -608619.65527      2329.30427        41.64727  21028208.67425   -460433.40725      1739.61425        34.44525
R22  19208395.60427   -572050.94127      2156.88727        43.62827
R13  22390144.22625  -1294001.47725      5148.77625        30.25225
R12  19644592.43225   -793900.71725      3096.88125        33.97225
R11  21022634.33325    123299.90825      -569.30325        33.87825
R23  21797968.38127  -1429863.89927      5638.36627        42.40327
R21  21107668.96527    370522.52027     -1556.80727        42.19327
E02  26235543.41125     20895.41925      -112.06525        35.35125  26235378.22623     15343.34423       -83.80723        22.97323
E07  27048202.21924    191100.70324      -800.75724        28.45724  27048044.82825    143382.32825      -598.16625        33.39525
E15  25435284.01926   -694677.78426      4459.38726        37.88726  25435121.83226   -518663.28826      3330.38626        36.39226
E18  20401774.94526  -1151018.49326      4502.74626        37.57126  20401603.16424   -876084.50724      3362.59424        27.24724
E27  25364055.73026   -526809.21026      3390.16326        36.94426  25363901.33625   -393366.99325      2531.92125        31.64225
E30  23779891.82326   -401710.07126      1569.26626        37.65726  23779720.34224   -306965.58024      1172.60924        25.88524
E34  24164329.48326   -545047.63226      2111.94026        38.87626                                                                
E36  26772572.43426     97907.50126      -453.30326        36.07226  26772398.85426     73489.78926      -337.79226        37.85926
> 2023 11 29 03 24 26.0001395  0 23                      
G06  21098495.31627   -917725.76127      3589.22027        43.35727  21098328.63126   -688064.70826      2680.17626        36.37926
G11  23118636.60126  -1277647.62326      5076.28126        38.77026  23118467.21824   -957968.17724      3791.84724        24.56424
G12  23221898.01527  -1105605.18627      4362.69027        42.07727                                                                
G13  24577421.60524    391198.25924     -1625.98924        26.02524                                                                
G15  24853916.29225    261142.16025     -1065.37825        31.50525                                                                
G17  22422002.27126    238448.29526      -980.97526        40.35226                                                                
G19  20464710.37626    -86876.23326       276.44526        36.71526                                                                
G22  22476108.81425      6667.15925       -63.36725        31.50725                                                                
G24  21028268.93227   -610947.29827      2327.22327        41.73627  21028095.05325   -462171.93625      1738.54725        34.54925
R22  19208335.34627   -574205.44627      2153.55527        43.87227
R13  22389501.77025  -1299149.01125      5146.84625        30.44925
R12  19644339.10725   -796995.28525      3094.27425        32.89925
R11  21023071.13125    123870.18225      -570.32925        34.57725
R23  21797247.08027  -1435502.39127      5638.90527        42.41027
R21  21108295.23127    372079.71227     -1558.22227        42.57327
E02  26235892.96926     21008.02926      -112.62226        35.63626  26235728.98323     15440.66323       -84.27023        21.34223
E07  27048686.68424    191901.68924      -800.85924        27.38124  27048527.79425    143984.19725      -597.97925        33.03425
E15  25434765.37826   -699136.72026      4458.54826        37.24526  25434602.59126   -521992.76126      3329.33126        36.54126
E18  20401247.91026  -1155520.76526      4501.50426        37.45826  20401075.52924   -879446.45524      3362.07324        26.95524
E27  25363740.34826   -530199.15426      3389.43026        37.28126  25363584.75625   -395898.24825      2531.19925        31.65425
E30  23779922.40226   -403278.80726      1568.25526        37.38026  23779751.52124   -308136.52524      1170.62724        26.20424
E34  24164258.13226   -547159.09726      2110.79026        39.37526                                                                
E36  26772987.04725     98361.03425      -454.10825        35.47325  26772814.36626     73828.59226      -338.29526        37.55226
> 2023 11 29 03 24 27.0001405  0 23                      
G06  21098110.38227   -921314.07727      3588.28327        45.29227  21097944.89725   -690747.08425      2679.92225        35.27325
G11  23117965.96525  -1282724.00525      5075.67225        35.29525  23117799.28124   -961755.27324      3791.47624        28.21024
G12  23221370.97927  -1109969.03127      4363.70527        42.20127                                                                
G13  24578028.08524    392822.20824     -1622.17924        25.66724                                                                
G15  24854416.64525    262206.54425     -1064.44225        31.47425                                                                
G17  22422488.83426    239428.57326      -980.02326        41.05626                                                                
G19  20464955.30626    -87151.23326       273.27526        36.40626                                                                
G22  22476423.89625      6730.36625       -62.93525        32.54625                                                                
G24  21028125.33227   -613274.78627      2327.18827        41.56127  21027952.05225   -463910.17925      1738.29425        34.38225
R22  19208225.02327   -576359.39327      2153.28827        44.11827
R13  22388835.63225  -1304296.40425      5146.00325        31.80725
R12  19644012.63325   -800088.12725      3091.36525        32.88725
R11  21023471.35426    124441.47726      -571.54926        36.56426
R23  21796489.20527  -1441140.40927      5638.03327        41.77327
R21  21108905.00927    373637.43727     -1557.93527        43.23227
E02  26236215.24626     21120.71426      -113.12526        35.85226  26236050.36023     15529.43723       -84.03823        21.16823
E07  27049143.56824    192702.64824      -800.95124        27.91424  27048979.58125    144595.72325      -597.97925        32.84625
E15  25434206.56526   -703595.75226      4458.98626        36.00026  25434053.37126   -525322.39826      3329.43226        37.18026
E18  20400691.49526  -1160022.12826      4501.66626        37.27426  20400517.91524   -882808.50124      3362.25424        26.53324
E27  25363401.88226   -533587.13526      3389.87626        37.90726  25363239.09525   -398429.80125      2531.65325        32.11625
E30  23779922.70226   -404847.17826      1568.75626        37.63826  23779753.61924   -309308.50624      1172.03424        27.24724
E34  24164158.90126   -549269.46026      2110.74726        38.91126                                                                
E36  26773370.78126     98814.48626      -453.94626        36.32226  26773199.89926     74167.28226      -338.40226        38.44826
> 2023 11 29 03 24 28.0001416  0 23                      
G06  21097757.82627   -924901.25127      3586.95227        43.85027  21097591.74126   -693427.57326      2679.10726        36.06926
G11  23117330.40526  -1287800.63126      5076.76726        37.86026  23117163.42124   -965546.71024      3791.81924        26.51424
G12  23220867.92827  -1114333.59027      4365.50227        41.68227                                                                
G13  24578658.54924    394441.22624     -1620.16524        24.59924                                                                
G15  24854948.77725    263270.09025     -1063.61625        30.95325                                                                
G17  22423005.07726    240409.09826      -979.70526        40.24826                                                                
G19  20465234.11326    -87426.15426       275.10026        36.73926                                                                
G22  22476772.55425      6793.95025       -64.12625        32.50425                                                                
G24  21028009.01227   -615600.80027      2325.44027        41.51427  21027838.43025   -465647.63825      1737.47225        34.01225
R22  19208154.27227   -578512.06727      2152.26127        43.49027
R13  22388187.48025  -1309443.09025      5145.70325        31.33925
R12  19643792.28625   -803180.47425      3091.25725        33.04025
R11  21023910.84925    125014.02625      -573.83725        35.17725
R23  21795760.40927  -1446776.89727      5635.42627        41.98427
R21  21109525.58027    375195.58927     -1558.48927        43.33127
E02  26236566.60326     21234.29626      -113.69226        35.72326  26236401.11723     15614.25423       -84.74323        21.55423
E07  27049626.53324    193504.79924      -801.72724        29.32624  27049461.94725    145194.03625      -598.67825        33.01925
E15  25433695.11926   -708053.79326      4458.33626        37.15426  25433534.43026   -528652.02426      3329.75926        36.42726
E18  20400155.46626  -1164522.58326      4500.51326        37.79126  20399990.58024   -886170.43424      3360.74324        26.30324
E27  25363081.70426   -536976.57026      3389.30826        37.17226  25362923.41325   -400960.99825      2531.34025        31.43325
E30  23779954.18026   -406415.90226      1568.11126        38.29226  23779782.39924   -310479.94824      1172.44524        27.62524
E34  24164075.85826   -551379.59526      2110.23126        38.98026                                                                
E36  26773785.99426     99269.24126      -454.36426        36.51726  26773615.41226     74506.81226      -339.00026        37.65126
> 2023 11 29 03 24 29.0001426  0 23                      
G06  21097374.39226   -928487.38626      3584.66126        40.86426  21097208.60626   -696106.17426      2678.95826        37.40126
G11  23116662.16826  -1292877.38226      5077.07426        41.24626  23116498.78123   -969339.74823      3791.47323        22.20823
G12  23220321.10626  -1118698.03426      4365.73026        41.38126                                                                
G13  24579269.52624    396059.81724     -1621.28824        26.08324                                                                
G15  24855453.62825    264333.95025     -1063.21725        31.72125                                                                
G17  22423491.94026    241390.26626      -981.78426        40.09726                                                                
G19  20465478.14426    -87701.30826       276.48426        37.30926                                                                
G22  22477087.33625      6858.45325       -64.38525        31.62525                                                                
G24  21027865.11227   -617926.59727      2325.45627        41.57127  21027695.42925   -467384.19925      1737.09725        34.73925
R22  19208044.84727   -580664.04827      2151.96727        43.37627
R13  22387511.74824  -1314590.19324      5146.86824        29.28124
R12  19643513.47925   -806272.85625      3091.93025        33.74425
R11  21024308.97425    125586.32325      -572.51025        32.67425
R23  21795009.72927  -1452412.49027      5634.56227        43.18427
R21  21110116.47027    376753.90927     -1557.85427        43.19427
E02  26236896.07526     21347.63626      -114.09726        35.87126                                                                
E07  27050084.31624    194306.82024      -802.48224        27.66524  27049914.33425    145792.97125      -598.19325        32.55625
E15  25433155.19326   -712511.88626      4457.89026        39.35626  25432985.51125   -531981.36625      3329.38425        35.00925
E18  20399602.04926  -1169023.28726      4500.38026        37.93026  20399433.26624   -889531.22524      3361.24424        27.37124
E27  25362736.34326   -540366.44526      3389.75826        37.16526  25362578.35225   -403491.69825      2531.17025        31.58725
E30  23779952.38226   -407984.11726      1568.03626        38.16426  23779784.19824   -311650.95924      1170.76924        28.33024
E34  24163977.52626   -553489.41326      2109.54426        39.94826                                                                
E36  26774172.12625     99724.15125      -455.19325        35.15525  26774002.44426     74846.87826      -339.27426        37.93026
> 2023 11 29 03 24 30.0001437  0 23                      
G06  21097020.03726   -932074.17126      3586.84926        36.71926  21096854.25226   -698784.75526      2678.95826        37.51126
G11  23116025.40927  -1297954.42127      5077.59627        42.09027  23115862.02224   -973133.29224      3792.11624        23.77024
G12  23219818.95427  -1123062.17427      4364.13827        42.71927                                                                
G13  24579905.68524    397681.16924     -1625.98524        25.68824                                                                
G15  24855959.97725    265397.94025     -1064.24825        34.08925                                                                
G17  22424010.88026    242371.15426      -980.81426        39.83326                                                                
G19  20465754.85326    -87976.92726       277.41726        36.57026                                                                
G22  22477424.60325      6922.41525       -63.96225        31.59225                                                                
G24  21027750.89126   -620251.81526      2324.77826        41.47126  21027583.00726   -469120.94226      1737.02326        36.33626
R22  19207965.70227   -582815.53927      2151.56427        43.60427
R13  22386874.09024  -1319735.86524      5148.28424        28.08724
R12  19643267.04925   -809364.96225      3091.80725        33.81625
R11  21024741.87424    126158.09224      -571.72924        29.38624
R23  21794284.23127  -1458048.89327      5636.74727        43.51327
R21  21110732.54427    378311.93727     -1556.58527        42.94527
E02  26237242.33525     21461.36025      -114.21925        34.88325                                                                
E07  27050563.08524    195108.58424      -802.98124        24.26724  27050396.70025    146391.51925      -598.23225        32.64225
E15  25432634.45426   -716969.45326      4457.84126        40.95026  25432467.76925   -535310.75725      3329.42825        34.48025
E18  20399073.81526  -1173523.24126      4500.19726        37.12426  20398907.73024   -892891.65924      3361.16224        28.68224
E27  25362420.36226   -543755.92026      3390.20426        37.96326  25362261.77225   -406023.35925      2532.13725        32.45725
E30  23779981.46126   -409551.80626      1568.12026        37.17126  23779815.67624   -312822.23324      1171.16624        26.01624
E34  24163905.27626   -555598.42526      2109.34926        41.48926                                                                
E36  26774587.03926    100178.65426      -454.83926        36.06126  26774417.65626     75186.56126      -339.10726        38.14926
